River ID,River name,Latitude,Longitude,Country,Region,Continent,Ocean Basin,"Monthly discharge (Qm) 
(m3/s)",interannual mean discharge (Qa=ΣQm / 12) (m3/s),enviromental discharge (Qe=Qa*0.3) (m3/s),Extraction Factor (EF),"Design flow  (Qd=Qa*EF) 
(m3/s)","Extractable discharge (Qex_m) (m3/s)
Extractable discharge depends on the monthly discharge (Qm), the environmental discharge (Qe), and the design flow (Qd).","Actual extractable water volume per year (Qreal=ΣQex_m) 
(m3/s)","Capacity factor (CF=Qreal/Qideal) 
(%)",Jan_Pot,Feb_Pot,Mar_Pot,Apr_Pot,May_Pot,Jun_Pot,Jul_Pot,Aug_Pot,Sep_Pot,Oct_Pot,Nov_Pot,Dec_Pot
1,Amazon,0.682429482753352,-50.2294586645064,Brazil,South America,South America,North Atlantic Ocean,164117.08,195080.6175,58524.18525,28.0,54622.572900000014,54622.574,655470.8880000002,100.00000201381948,299901.81199903565,363405.3391440784,428467.62724436243,474947.1692886221,502151.60932111426,508475.66754288995,486851.1107900678,434868.20825485955,349328.35204573534,268242.7237976047,254938.9384774955,291926.08665065526
2,Congo,-6.07873677468801,12.3953825348203,Angola,Middle Africa,Africa,South Atlantic Ocean,47804.82,39919.93041666666,11975.979124999998,46.0,18363.167991666665,18363.17,220358.03999999992,100.00001093674756,85900.7110142647,69585.17795170205,66183.16379830941,73429.22928888926,82845.5990516334,79387.71868121567,69499.01637907345,67519.37301450336,75941.75705195554,88001.47603809227,107796.28286261733,115671.70696534598
3,Orinoco,8.61943089378377,-60.7160208507744,Venezuela,South America,South America,North Atlantic Ocean,13188.122,31163.40393333333,9349.02118,72.0,22437.650832,3839.1006,160824.7566,59.7302415941259,23639.174772490034,17777.14379989481,14713.740154738305,18336.247389896344,38748.15807028894,65338.26706385737,100192.68032690737,116870.59598405148,120476.74549411815,97396.39807422017,67210.40105160158,45409.622754705066
4,Changjiang,30.2720754996086,120.798675074388,China,Eastern Asia,Asia,North Pacific Ocean,9879.6875,27464.773625,8239.4320875,5.0,1373.23868125,1373.2386,16478.863200000003,99.99999408333008,16632.447832199552,19206.845839178066,27525.311359142306,39410.31237944926,58635.21673920254,72129.51893011511,84440.73044196697,87221.0419252028,75020.29110056446,62049.3146909401,42846.198316942464,23643.324921685315
5,Brahmaputra,22.4103020412775,91.0758866414137,Bangladesh,Southern Asia,Asia,Indian Ocean,6100.2915,20055.471375,6016.6414125,67.0,13437.16582125,83.650391,89019.88649100001,55.20750411904872,10164.173681668399,8019.405977390706,7544.490619770846,10827.827805415927,19077.910338318587,36245.10866252971,60612.32514815904,81553.61538829056,74767.15083468064,65245.04783901911,41785.305052826945,17832.585770825986
6,Mississippi,29.148376334599,-89.2489751148148,United States,Northern America,North America,North Atlantic Ocean,18628.621,17391.135766666666,5217.34073,20.0,3478.2271533333333,3478.2271,41738.7252,99.9999984666518,35019.848261277584,39168.9551125924,44163.52470016081,50981.29560069811,49600.09074070842,36556.72485798,28041.071484451753,19089.002023236666,17287.310990934697,18462.087903972933,21589.184289990368,30153.578298668373
7,Yenisey,70.9631889733935,83.2845148467182,Russia,Asiatic Russia,Asia,Arctic Ocean,6836.1479,18621.16788333333,5586.350365,5.0,931.0583941666667,931.05829,11172.699480000005,99.99998881201574,13478.355562468787,12042.936378386628,12206.642874031346,12016.368151617438,52024.21749069939,131080.33078425014,51311.62222235385,33766.01204501471,33598.155046230015,27328.11060509446,13763.513208479382,11431.746246343448
8,Parana,-34.3244237795752,-58.4795004150491,Argentina,South America,South America,South Atlantic Ocean,15655.203,15861.709666666668,4758.5129,53.0,8406.706123333333,8406.7051,100880.46119999996,99.99998782717844,29364.910263966234,33110.31219697022,34913.66994990458,33090.400611880905,33123.9265972406,33576.46854431698,33389.75280840546,29282.328747986325,26958.68924371301,27976.195703198267,26876.292698764024,28486.466698065025
9,Lena,72.5589989838854,129.233409675682,Russia,Asiatic Russia,Asia,Arctic Ocean,3062.7576,16979.744208333334,5093.9232625,100.0,16979.744208333334,0.0,79890.41489999999,39.20868591019532,5498.389787679129,4201.987663451576,3600.3844355588667,2894.29448125033,13934.96999064944,139512.22228714093,73579.30931476319,49802.345291355494,44845.52030911488,26689.496144844034,6576.438501023901,5615.596366516336
10,Mekong,9.81997191933899,106.517623304697,Vietnam,Southeastern Asia,Asia,South China and Easter Archipelagic Seas,2793.1201,10096.416783333334,3028.925035,58.0,5855.921734333333,0.0,35519.126800000005,50.545881034906046,5670.462265735526,4439.9958377355015,3700.5328415187287,3606.56206005455,5729.363121478635,17559.106389682413,31543.36528159747,49729.84709960585,50670.20310179284,29470.286585521717,15785.548296767685,8428.473598673216
11,Tocantins,-1.53968507607143,-48.87838848566,Brazil,South America,South America,South Atlantic Ocean,13302.817,10677.527566666666,3203.25827,2.0,213.5505513333333,213.55055,2562.6066,99.99999937563572,24405.095694596672,34403.46993129555,41771.548557729075,40597.07051691501,31682.13601657036,16004.482739312683,10442.37394825194,8618.265503880912,7768.06313586996,7974.936304323755,11040.076592493235,17657.145870758173
12,Ob,66.4530326843283,71.0050406517122,Russia,Asiatic Russia,Asia,Arctic Ocean,4878.6313,12851.319841666666,3855.3959525,13.0,1670.6715794166666,1023.2354,14682.430469999998,73.23616966820077,8029.431822352483,7518.72089250342,6821.841666320729,6816.923577319405,30686.214242666436,62820.470711993345,53140.025427503635,38965.76795303751,25078.802435452682,19102.234174040488,12069.86276779062,10033.976646403044
13,Ganges (Ganga),21.9543860598704,89.514307285256,Bangladesh,Southern Asia,Asia,Indian Ocean,2802.7415,11858.400116666664,3557.520034999999,26.0,3083.184030333333,0.0,16010.947069999998,43.27492540308784,4757.407327073319,4159.751421775547,3545.9456248618317,3277.049818153371,3638.2298362885585,6860.181797195689,40756.887339179666,71918.6497338025,66415.61567872437,32899.42515319363,12608.246299676362,6935.910270557586
14,Irrawaddy (Ayey,15.8264715960959,95.0916052783884,Myanmar,Southeastern Asia,Asia,Indian Ocean,2526.0557,8136.959266666666,2441.08778,13.0,1057.8047046666666,84.968018,9546.233008,75.20475318589321,4466.334986599344,3846.0352882560524,4630.3664539039655,6990.218919253204,8538.004810362094,17850.649695918168,29980.422224074784,31589.089948246507,31815.68986384132,23066.971186390245,9857.793170394782,6048.507094894093
15,St Lawrence,49.104303522315,-67.548168188021,Canada,Northern America,North America,North Atlantic Ocean,7742.1392,9032.495433333332,2709.74863,55.0,4967.872488333333,4967.8721,59614.4652,99.99999218310587,14483.79889668137,15190.871141764712,15028.151404108872,18585.980185122797,21460.751806692617,17512.895976287327,15665.15649509006,14813.855493703786,14900.69331725685,15084.703170338638,15011.241357061162,14394.978432053735
16,Amur,52.9908836903171,141.019759255177,Russia,Asiatic Russia,Asia,North Pacific Ocean,1841.8606,10083.3278,3024.99834,100.0,10083.3278,0.0,64192.39649999999,53.05159646798351,3408.270360696762,2078.340308506448,2286.598074437193,7922.3382294291505,28275.101316607328,31722.428812689588,30111.888888455316,35141.54001573183,36215.71093780003,27146.529727047033,9856.626210020764,4368.354339777754
17,Mackenzie,69.3474770685121,-135.58562551451,Canada,Northern America,North America,Arctic Ocean,4122.2432,9091.477575,2727.4432725,7.0,636.40343025,636.40344,7636.841280000001,100.00000153204704,7171.847788701092,6309.3785780790395,5901.651996836188,5864.880988973969,22813.95899296418,31570.132617893312,26018.065606421642,20013.783943462215,16996.306476222115,14177.180737940262,8265.9682033482,6144.063452209657
18,Xijiang,22.0727518438016,113.467937003929,China,Eastern Asia,Asia,South China and Easter Archipelagic Seas,1746.3829,6924.272208333335,2077.2816625000005,22.0,1523.3398858333337,0.0,12457.745219999995,68.14929778012664,3168.3052821833107,3274.187513472266,4045.6445371785308,8300.636320551146,16206.248210981768,24698.569916901026,28934.552909198945,26090.900089489165,16465.027929281758,10164.181224395803,7030.921417521124,4220.230638290353
19,Columbia,46.2428671658079,-123.970962842188,United States,Northern America,North America,North Pacific Ocean,5404.4692,6130.262291666667,1839.0786875,25.0,1532.5655729166667,1532.5656,18390.7872,100.0000017671892,9585.27222137485,9161.275622992402,9703.297555221641,11811.89343082999,17243.231016621405,20777.05469215293,14284.14073839511,8715.14352462514,6556.604450076288,6283.765872925744,7723.415311726294,9107.802452314703
20,Magdalena,11.097718487471,-74.8485267492985,Colombia,South America,South America,North Atlantic Ocean,5308.9263,7129.682616666666,2138.904785,29.0,2067.607958833333,2067.6079,24811.294799999992,99.9999971545218,10855.08754180498,8891.506289980347,9517.006983016034,12696.226290581935,15098.536444671283,15517.951606452416,15193.152771422621,14807.787856821558,16078.87959138865,18515.374597157344,19358.75886276977,15883.962724053268
21,Uruguay (Urugua,-34.152295903045,-58.3002048920882,Argentina,South America,South America,South Atlantic Ocean,3729.4165,5519.503,1655.8509,37.0,2042.21611,2042.2163,24506.5956,100.0000093036187,7023.270073168915,7464.52655381439,6986.376080981243,9037.81665291348,10138.952848878813,11110.400939392404,12001.8734846059,11504.543271850107,12733.824281055518,16732.336225548177,12083.359702831473,8116.528921727029
22,Yukon,62.5813761298509,-164.93310931307,United States,Northern America,North America,North Pacific Ocean,1734.5546,6424.923966666665,1927.47719,100.0,6424.923966666665,0.0,39275.15150000001,50.941136558923446,2886.372922815107,2630.7311528671507,2388.931048185171,2306.030300911418,15036.522115492835,31135.164211818366,23287.96421515902,20101.236933428296,17684.008922502773,12576.30376248147,6225.725656445959,3600.645432304826
23,Atrato,8.06987792814051,-76.922673590421,Colombia,South America,South America,North Atlantic Ocean,1640.2916,1767.8619583333336,530.3585875000001,41.0,724.8234029166667,724.82336,8697.880320000002,99.99999407901755,3225.5044510701637,3116.9424430747185,2593.7364799832812,3118.003233495717,3651.3972493227398,3651.252198363168,3338.6769060682177,3575.993647111566,3698.196854604748,4097.496012427043,4166.388207505812,3641.74846840993
24,Danube,45.2195858860877,29.7506943868355,Ukraine,Eastern Europe,Europe,Mediterranean Region,6043.2119,6496.510325,1948.9530975,40.0,2598.60413,2598.604,31183.248,99.99999499731416,10708.156599266222,10556.679356444722,13808.196705617598,16998.681573415284,18643.636691477375,17374.07143274506,16090.160525495203,12421.62501720222,10362.722235830997,9447.7100387415,9927.014026315892,11008.36994277334
25,Niger (Issa Ber,4.29477640123507,6.07568879938496,Nigeria,Western Africa,Africa,North Atlantic Ocean,4197.5557,6844.8591916666655,2053.4577574999994,1.0,68.44859191666666,68.448586,821.3830319999998,99.99999135604328,7528.913988453221,7796.991322427594,7162.931082036938,5389.013516281236,4264.812385291372,6552.6238293497245,10527.621650150099,18869.283916057095,30825.458213262744,32001.283190378315,14427.968444169628,8089.230089270992
26,Ogooué,-1.02747728029678,8.89023055986157,Gabon,Middle Africa,Africa,South Atlantic Ocean,4756.9761,4688.698416666666,1406.6095249999998,11.0,515.7568258333333,515.75684,6189.08208,100.0000027467725,8655.60653961205,8106.472111407974,9085.440289097787,11278.58191072579,12984.890041763367,9375.375180714098,5587.750290939431,3885.175529300012,3940.055560854487,8646.090665415366,14943.048678973155,13333.23611848589
27,Essequibo,6.81584487718266,-58.5022596106272,Guyana,South America,South America,North Atlantic Ocean,2029.0575,3235.566033333333,970.66981,9.0,291.20094299999994,291.2009,3494.410799999999,99.9999852335643,3880.6962723166685,2837.554336496587,2622.698747294352,3743.1949578677104,6972.361045343037,12226.25722366756,13403.8007045669,11386.10341248631,7857.747436971217,4375.1457737364935,3202.033287088968,4441.260020996225
28,Fraser,49.1186111070057,-123.190832929624,Canada,Northern America,North America,North Pacific Ocean,943.65027,2710.769166666667,813.2307500000001,2.0,54.21538333333334,54.215382,650.5845839999998,99.99999754067336,1592.6831111730762,1447.48779485888,1522.4342450440104,3312.7728470183465,8772.923201436573,12973.048075524568,10313.921171179569,6781.241282052378,4311.965226642723,3475.4845117080017,2772.1073309639323,1849.306776793475
29,Pechora,68.05,53.95,Russia,European Russia,Europe,Arctic Ocean,1125.6216,4628.331766666666,1388.4995299999998,36.0,1666.199436,0.0,15253.75513,76.29016271215048,1829.2065004590136,9251.353568989072,11698.452837628958,5031.640405468135,14631.382705390739,22922.329252131927,10555.228387108546,5658.926438984561,5843.902786233269,5629.65778875302,3342.686898092703,2089.211611192882
30,Nelson,57.0561230830693,-92.4944763674543,Canada,Northern America,North America,Arctic Ocean,2220.7012,2232.026033333333,669.6078099999999,57.0,1272.2548389999995,1272.255,15267.060000000003,100.00001265469744,3944.1894707247166,3780.705047015332,3517.073455366766,3328.2689736058314,3259.132953912273,3199.2349823312848,3084.4065376327108,3005.609568077339,3062.098759880596,3529.688405588731,3939.7454890384993,3952.198581050316
31,Khatanga,74.4965609958552,111.434576340651,Russia,Asiatic Russia,Asia,Arctic Ocean,2161.75,3493.486608333333,1048.0459824999998,7.0,244.54406258333336,244.54407,2934.5288399999995,100.0000030328549,0.0,0.0,0.0,0.0,0.0,0.0,0.0,0.0,0.0,0.0,0.0,0.0
32,Sepik,-3.84222036774841,144.538889269653,Papua New Guinea,Melanesia,Asia,South Pacific Ocean,4008.0,3758.369458333333,1127.5108375,45.0,1691.26625625,1691.2662,20295.1944,99.99999667408962,7969.400395848862,8602.02668211065,9218.001304431524,8473.885539163255,8609.006273221958,7640.6770704789615,6006.273318750958,6402.947337534358,5855.930094894157,7785.160801195055,6890.658850355429,6962.730718759771
33,Kolyma,69.5802474115725,161.208673879275,Russia,Asiatic Russia,Asia,Arctic Ocean,202.83264,3424.8562025,1027.4568607499998,100.0,3424.8562025,0.0,15796.038360000002,38.43479702999298,333.75779807524646,288.51585120197586,250.03945442356434,222.8590039146301,4491.782228427391,28560.007319994795,12673.37785063704,9677.430025956706,9000.749939011303,2859.1287553448833,867.2246967020801,512.9740036104862
34,Zambeze,-18.8557217041805,36.3005105434865,Mozambique,Eastern Africa,Africa,Indian Ocean,3502.75,3337.1041666666665,1001.13125,28.0,934.3891666666668,934.38916,11212.66992,99.99999928652142,7308.649929439388,5921.194281988159,9429.267041875431,8300.929284627984,6821.624067820286,8090.752747461151,9223.958870583725,4032.1497816082847,4045.4688124289187,4712.253505832342,5697.591943075872,8352.76430327773
35,Severnaya Dvina,64.568972,40.548472,Russia,European Russia,Europe,Arctic Ocean,1050.1489,3318.732755833333,995.61982675,32.0,1061.9944818666663,54.529114,8944.527533999999,70.1865506108705,1739.6959477838036,1654.4100179888965,1251.777553759426,4910.394268928481,28283.88206798049,14890.07104561339,6736.975276005764,4746.668714101057,4711.843472904754,5744.028148499571,4691.305352624165,2684.7874954151985
36,Indus,23.9941649993002,67.4467288529386,Pakistan,Southern Asia,Asia,Indian Ocean,712.72687,2556.9376291666667,767.08128875,97.0,2480.2295002916667,0.0,16370.26417,55.00251814087807,1498.4136367965134,558.2630409765623,695.9283240978895,1400.0208838452854,2288.6771272712426,4385.839691210204,7777.576520155932,12414.190357485037,8882.482154829346,7587.342541302506,11884.448824155346,6887.634379444728
37,Sanaga,-34.9831990569587,-72.1822128035523,Chile,South America,South America,South Pacific Ocean,847.65967,2013.09839,603.9295169999999,16.0,322.0957424,243.7301,2867.069784,74.17747289043334,1648.295176890299,1167.8359518609223,1038.8521231382967,1239.526285515979,1800.0842656967152,2507.698054064673,3782.92703894621,5131.932623816525,8298.220764110547,10307.478800031933,6402.139507387859,2640.3706592717995
38,Godavari,16.7332932007707,82.3340518024682,India,Southern Asia,Asia,Indian Ocean,254.80821,3038.1843311666667,911.45529935,97.0,2947.038801231666,0.0,12006.880706,33.95182281782287,490.69384167499203,399.8923910313142,299.55249518127624,240.02159557132256,175.92941844324395,1948.0764188358494,15226.888738422602,22525.29442683724,19146.044703859916,6971.196242207956,1944.0249781078353,807.2800665937295
39,Rajang,2.42251720961286,111.288268852222,Malaysia,Southeastern Asia,Asia,South China and Easter Archipelagic Seas,2836.1819,2226.785983333333,668.0357949999999,37.0,823.9108138333332,823.91077,9886.929240000003,99.99999467984492,5267.633605651944,4323.96705939388,4418.548636953914,4527.679472209299,4428.827802291957,3397.0059291635584,2895.0172861014585,3030.6493396996316,3923.4528974809296,3910.057874655347,5098.261900495144,5020.59691715732
40,Sao Francisco,-10.4873128112321,-36.4029278409264,Brazil,South America,South America,South Atlantic Ocean,3564.803,2490.3476333333333,747.10429,28.0,697.2973373333334,697.29736,8367.568320000002,100.00000325064582,8063.28979443649,9224.659264731019,9247.09780212305,7917.762340931164,5527.2279557347965,4002.203707491856,3522.487190147541,3268.319005555589,3254.0781892950845,3373.5265122521373,4079.3242803090006,6013.343971525349
41,Usumacinta,18.6485515846926,-92.4681191878046,Mexico,Central America,North America,North Atlantic Ocean,1279.1722,1899.0589658333336,569.7176897500001,2.0,37.98117931666667,37.981178,455.774136,99.99999653337076,2418.123072774935,1959.6439874822368,1589.1060641348458,1276.6973633247117,1122.7036550193952,3110.9484242398407,5010.018100160704,4986.76336200086,6368.860197404324,7020.814291901444,4718.257778909385,3407.9544807386865
42,Maroni (Marowij,5.73155591187816,-53.9773386015341,Suriname,South America,South America,North Atlantic Ocean,1250.7094,1612.1498483333337,483.6449545,47.0,757.7104287166667,757.71051,6515.88287,71.6619725145302,2491.331001680647,2475.882911276171,3258.1853207611452,5044.6447261704,6538.15680439018,5605.387535797215,4842.2072665293135,3011.502945341811,1608.8097312172392,984.2477576946304,588.4389496630043,1398.2562254671786
43,Rhine,51.9760035274686,4.09094679403161,Netherlands,Western Europe,Europe,North Atlantic Ocean,2724.3621,2214.153691666667,664.2461075,44.0,974.2276243333334,974.22754,11690.73048,99.99999134356987,5122.689207724264,5089.949819400938,4839.770402433539,4601.677594749313,4294.800612072384,4340.928536582569,4109.7812641493265,3611.138970001644,3327.511201195423,3262.6168985715467,3789.050024328619,4656.0553725821665
44,Purari,-7.8368732046499,145.041382690364,Papua New Guinea,Melanesia,Asia,South Pacific Ocean,1721.4,2338.3775916666664,701.5132774999998,43.0,1005.5023644166664,1005.5024,12066.028799999998,100.00000353886122,3113.6878889526115,4867.162660990915,4535.521843166279,5132.936039629987,4063.734859022471,4045.221319934547,3882.097479348118,4442.501801740198,4621.868454235906,4397.78328444226,3328.921513378274,3802.9625425614017
45,Caniapiscau,58.4754765528972,-68.191095214874,Canada,Northern America,North America,Arctic Ocean,366.76962,1234.159403333333,370.247821,91.0,1123.0850570333334,0.0,7520.436110000001,55.80191858505567,585.3420979921276,436.1164686892166,378.3120044963061,367.1677219799572,2980.888700111298,7389.959490584204,3802.6701153229887,2708.860190173001,2602.492365705345,2693.9438962682066,1895.0192972807517,1043.5806538690329
46,Mahanadi,20.2935530743388,86.7100870233027,India,Southern Asia,Asia,Indian Ocean,759.0,1883.347225833333,565.00416775,3.0,56.50041677499999,56.500416,678.0049919999998,99.99999862832868,1370.3777715096849,1667.5122234728442,1440.5283535567778,1532.2352401410208,1238.2605173058946,1369.4616236987365,8112.699377244199,11581.989045189132,6293.859453929564,3410.6652494321447,1929.8131964302486,1620.2897862840211
47,Sacramento,38.0651854016171,-121.784665000594,United States,Northern America,North America,North Pacific Ocean,1013.0953,681.8883,204.56649,21.0,143.196543,143.19655,1718.3586000000005,100.0000048883862,1859.2247113891215,2088.3131960472006,1994.296546194709,1666.994457276745,1468.6305388676608,1052.9865027130852,910.4654905047959,851.2742007359003,855.1105057447998,725.9197701793273,903.3518716847743,1327.1189898759742
48,Jacui,-30.0332887525757,-51.2489483371755,Brazil,South America,South America,South Atlantic Ocean,1099.8198,1842.4893333333328,552.7467999999999,27.0,497.47212,497.47214,5969.665679999999,100.0000040203258,2476.5580435831284,2442.8465370959507,2370.920184468138,2832.051630600344,3715.3875120957373,4590.186794292997,5025.503634090865,4900.283618577115,5164.2870880682,5286.367025476984,3774.5791731764293,2442.600520683681
49,San Juan CO,4.04983469836524,-77.4499523274862,Colombia,South America,South America,North Pacific Ocean,1707.1154,2064.087233333333,619.2261699999999,45.0,928.839255,928.83923,11146.070759999997,99.9999973084686,3037.5715983154882,2947.822073752428,2982.4317134142457,3724.821972892147,4167.984708288157,3656.6885915519706,3428.7221033144897,3637.437714599846,3911.199769672675,4681.459210476622,4698.622939566735,3897.7450375050144
50,Kuskokwim,60.0679939604863,-162.411306691011,United States,Northern America,North America,North Pacific Ocean,376.26733,1201.3998883333331,360.41996649999993,9.0,108.12598994999998,15.847412,970.443295,74.7926327617714,634.7870085349268,578.3973708247064,532.7034475167881,826.5835908070666,4208.516165167985,4162.087013329003,3444.6403672256833,3649.5154865693016,3295.5441728519577,2194.7073820774935,1084.1508352921526,732.9794975725778
51,Albany,52.2958333333333,-81.5708333333333,Canada,Northern America,North America,Arctic Ocean,279.62976,1001.6382841666664,300.4914852499999,63.0,631.0321190249999,0.0,5133.86631,67.79721342251531,511.38036507412926,429.2911099262109,437.72265230261775,1782.433966797337,5805.087667865493,3808.195435920949,2188.681185023707,1818.1492448893966,2111.206953595781,2402.06773246726,1970.868648408224,1022.329866892827
52,Huai,31.283499110551,121.773435205127,China,Eastern Asia,Asia,North Pacific Ocean,235.57666,851.9677250000001,255.59031750000003,6.0,51.118063500000005,0.0,554.293632,90.36167029292884,398.34657753731915,523.324783039603,661.7943122366886,822.5663625595129,1256.8941963904344,1405.4557197246204,3834.2859148850275,4164.6426015968555,2850.4660868792157,1635.2218933860174,969.4222302447264,590.5704670620692
53,Grande (La),53.8166666666667,-78.9083333333333,Canada,Northern America,North America,Arctic Ocean,895.82458,1885.8980358333336,565.76941075,46.0,867.5130964833335,330.05511,7350.5114330000015,70.60903424971346,1645.7876417111058,1199.547068313065,923.8993742123333,903.4864598603297,4413.591536831955,6651.694319428934,5301.036588962147,4458.231577728731,4423.246579363587,4662.187860907109,3835.411747978925,2477.537138636561
54,"Tigris (Dicle,",29.9958333333333,48.4625,Iran,Southern Asia,Asia,Indian Ocean,2180.6016,2725.977148333333,817.7931444999998,3.0,81.77931444999999,81.779312,981.351744,99.9999970041324,4869.146314680456,6823.753363588248,9990.669748071705,13197.780346353351,12696.569762012807,8796.49950215116,4707.532803902554,2902.457311287723,2444.037306700364,2193.442587055598,2667.5160984592944,4241.490589353868
55,Krishna,15.7383162482176,80.9148883304557,India,Southern Asia,Asia,Indian Ocean,110.97298,1641.7353715,492.52061144999993,100.0,1641.7353715,0.0,7021.0753167,35.63848473279971,209.61272186890986,121.91052860555119,95.40563799730583,67.14323631755937,232.3582824347441,1000.4705464011081,9573.847493582247,12642.690374979435,8102.078161085492,4741.388075508718,1680.2945732795315,442.8655796670181
56,Taz,67.5768707902838,78.7430687098094,Russia,Asiatic Russia,Asia,Arctic Ocean,339.97986,944.56167625,283.368502875,10.0,94.456167625,56.611389,896.8182689999999,79.12120259494806,562.0164606928778,864.0338070966665,873.653674291584,661.1747573502744,1590.7801468128025,8164.594686990181,5234.006648686943,1307.5869846794617,1113.8205745936648,951.5128618474807,454.7962566600295,175.19928651294964
57,Po,44.9696382975997,12.5421575931451,Italy,Southern Europe,Europe,Mediterranean Region,1252.3517,1512.9644833333334,453.889345,32.0,484.1486346666667,484.14859,5809.783079999998,99.99999077418305,2635.4307387137196,2725.330118610615,3284.4999079350655,3458.911981599071,4101.686738931025,3847.7958625261613,2565.9108850517505,2040.684926905058,2836.14326664263,3803.848572717744,4027.4236533156122,3095.5063038591347
58,Courantyne/Cora,5.85439775781605,-57.1329195536319,Guyana,South America,South America,North Atlantic Ocean,391.14285,1085.8690258333334,325.76070775,6.0,65.15214155,65.152138,677.474963,86.65294121351361,812.5785764702265,833.009281074446,1066.7490120440546,2168.3090567218787,3365.5272833656645,5051.787600722077,4226.901296546612,4764.061102967041,1956.0671190883672,1110.9321374429226,683.2074723557988,739.0985145390041
59,Indigirka,71.4195833093573,150.722798942782,Russia,Asiatic Russia,Asia,Arctic Ocean,36.204838,1598.090544991667,479.4271634975001,100.0,1598.090544991667,0.0,6441.110938,33.58753648318044,59.59735906299006,33.29848051137634,22.51830213885025,16.44869014946613,535.9489967583828,10396.671523886107,9480.30433784386,7133.601217656049,4339.6297767371425,886.3000545671867,227.51375394740035,135.57154007872947
60,Rhone,43.3838328106093,4.80223232169617,France,Western Europe,Europe,Mediterranean Region,1969.2969,1706.649375,511.9948125,34.0,580.2607875,580.2608,6963.1296,100.0000021542038,3855.2210383940255,4053.419587219008,4125.570241383103,4088.0459434812724,4008.0540253564686,3794.167255624121,2952.95728813684,2335.368940980592,2420.172872331296,3054.6698835804527,3841.384883697272,3838.1180775876296
61,Saguenay,48.1416666666667,-69.7625000000001,Canada,Northern America,North America,North Atlantic Ocean,957.97498,1457.0418758333333,437.11256275,35.0,509.9646565416666,509.96466,6119.575919999999,100.00000067815157,1771.7792746229493,1755.2850584510277,1702.9259796391166,2116.0168851338362,5019.852739753977,4319.416214715878,2723.0367423488246,2420.6318858833342,2445.300799028406,2651.9344779269272,2538.1134639164165,1867.4131058577602
62,Alabama,30.4511134598114,-87.3982754990328,United States,Northern America,North America,North Atlantic Ocean,1329.3513,893.8354441666665,268.15063324999994,11.0,98.32189885833333,98.321907,1179.862884,100.0000082806239,2637.128350041412,3048.692804562423,3548.721852381334,3071.110811652833,1673.4850991726719,982.9867584684218,919.3288358450118,788.8540849104243,698.6118136972644,780.6038045681119,1074.1251547971312,1880.0583207716593
63,Stikine,56.5634020005516,-132.40123006536,United States,Northern America,North America,North Pacific Ocean,299.48019,1556.5895991666666,466.97687975,100.0,1556.5895991666666,0.0,8945.818316500001,47.89219072949189,504.40731239264585,437.34039393697066,425.335163112135,808.0103324844979,3546.412450616879,7066.024078454782,6778.025531372509,5213.974982012325,3853.4057512184804,2594.774477802271,1120.5477432309722,682.794454992639
64,Eastmain,52.1504761724078,-78.5697019451769,Canada,Northern America,North America,Arctic Ocean,376.57144,908.1542158333336,272.44626475000007,39.0,354.18014417500007,104.12515,2952.358399,69.46461303086777,686.4713048896525,495.55734105879407,362.34171250355746,496.6419074065054,3254.010567721216,3101.943896372236,1979.8614724611873,2049.127243507718,2120.1314263606273,2247.000720842009,1763.7525167725169,1089.1677447270235
65,Brahmani,20.7726975390268,86.9567663332348,India,Southern Asia,Asia,Indian Ocean,36.0,674.4166666666666,202.325,100.0,674.4166666666666,0.0,2931.34175,36.22070616582232,64.4373770746554,59.859941420947806,51.25496254658055,58.9277385827859,78.15457666956499,1738.0818053823075,2989.359957910839,5578.902784725606,3077.0830719438545,794.4761297029025,210.80516042022924,112.38930057923669
66,Dnepr,46.5025393485807,32.3243549874763,Ukraine,Eastern Europe,Europe,Mediterranean Region,1369.0,1483.6969733333333,445.109092,26.0,385.7612130666666,385.76126,4629.135120000001,100.00001216642104,2368.4782948533975,2773.648201917466,3030.205860637999,4670.383573328461,5868.228271480613,3424.076712174826,2453.130116122053,2128.0796621802324,1821.0235505918333,1972.376044548759,2139.5843127335775,2223.9596148984465
67,Huanghe,37.7847893604923,119.295882877117,China,Eastern Asia,Asia,North Pacific Ocean,505.10333,1207.1482433333335,362.14447300000006,8.0,96.57185946666668,96.571869,1158.862428,100.00000987175082,833.8589002681907,787.5360202570389,1269.2334004782201,1567.8451080253603,1479.7152464963608,1343.3011798804712,2514.977854724135,3916.8056100609374,4143.842716837591,3822.581497853457,2580.402932436744,1412.1787124817836
68,Susquehanna,39.5523315306822,-76.0845477027538,United States,Northern America,North America,North Atlantic Ocean,1066.5671,979.8714475,293.96143425,5.0,48.99357237500001,48.993568,587.9228159999999,99.99999107025718,2099.9977961913287,2448.2636159871,4394.678400634933,4218.8411280387545,2718.677919785429,1474.5816196860799,970.2979503943241,661.2050840906038,754.562657101994,1097.4619257351944,1514.0335048171496,2059.305917520454
69,Beijiang,22.7473497515668,113.631191614261,China,Eastern Asia,Asia,South China and Easter Archipelagic Seas,423.61844,1313.4905191666664,394.04715575,1.0,13.134905191666665,13.134905,157.61886,99.9999985407838,780.1649999732876,1043.1884427469936,1840.403122443963,3668.537501283882,5472.937190646333,5608.543291105612,3097.9647957411294,2697.4969266453613,2123.0202068364356,1316.1588139290684,1046.5490553798704,792.6268013585126
70,Don,47.0958333333333,39.2541666666667,Russia,European Russia,Europe,Mediterranean Region,401.00809,787.0898566666668,236.12695700000003,20.0,157.41797133333338,157.41797,1889.01564,99.999999152998,646.8967606219719,823.6914207115473,1506.963396983954,3565.0281633542345,4633.059871500727,1627.3068124978856,1026.4221502898836,856.6500851985724,783.4109982465211,724.2532474112894,754.7511456489271,664.72154152885
71,Susitna,61.2853558850645,-150.57032705591,United States,Northern America,North America,North Pacific Ocean,631.68286,1559.3679066666666,467.810372,46.0,717.3092370666667,163.87244,4479.622066000001,52.041967333349525,1109.0944047937892,392.87798042549355,355.33876689446913,527.2531256495796,3705.9189944012787,6772.801110025843,7068.008424930674,6003.038363591404,4032.680080000442,2074.9925878485815,809.2945056203132,502.2837428156329
72,Narmada,21.4908257389907,72.6499577390787,India,Southern Asia,Asia,Indian Ocean,138.30769,1216.2115430833337,364.863462925,100.0,1216.2115430833337,0.0,4397.96384,30.1343124681686,264.9824223029208,197.29225324659694,144.77889604873232,107.32058183084244,71.99536222461442,726.4695628339045,4422.537246312254,9989.019610733663,8883.766144278146,2062.425831809977,545.4716745871054,438.05499593589667
73,Santa Cruz,-50.1119048754604,-68.3822088836961,Argentina,South America,South America,South Atlantic Ocean,839.21619,697.4963416666666,209.2489025,8.0,55.79970733333333,55.799706,669.5964720000001,99.99999761050124,1647.6565970744468,2121.218633861596,2504.437581105645,2208.9516148833545,1737.70906104041,1300.4204620316468,891.4241192617327,717.1661394414156,521.0718960248256,583.4159540851845,809.1494364328679,1085.8792652740863
74,Oyapock (Oiapoq,4.19670682474809,-51.6218353751037,French Guiana (France),South America,South America,North Atlantic Ocean,861.7182,1002.9975208333332,300.89925624999995,9.0,90.26977687499998,90.269775,923.30624,85.23582236523245,1536.8549913025015,2240.9094353010587,2582.801467836172,3119.0667557929964,3470.9459725074184,2725.879190264624,2076.6356837170483,1332.0403669079,797.2500762514572,708.2442910927668,617.3034051604974,1139.521696104112
75,George,58.7633524568142,-66.1230455444664,Canada,Northern America,North America,Arctic Ocean,142.10057,716.1145860833334,214.834375825,90.0,644.503127475,0.0,3894.079366,50.34988970568196,225.78631174035363,160.28279394783172,127.2105450125544,146.13923160499834,1506.5340832494685,5446.973340148001,2743.487238974709,1670.9430881158773,1497.932463242227,1389.0216148988532,820.9436307931668,428.56226928455203
76,Rufiji,-7.77803547269489,39.3532184131775,Tanzania,Eastern Africa,Africa,Indian Ocean,727.37451,815.5806425000001,244.67419275,20.0,163.11612850000003,163.11612,1426.393072,72.8720638642017,1507.2189935185897,2024.8390592733806,3144.285085990304,4083.7876454671514,3928.4075142781876,1497.3414140475784,888.3764230803089,695.2273449561869,554.8888128164004,492.5676346593433,438.51804115505405,860.8182371849225
77,Nile,31.4571743482252,30.3734754843611,Egypt,Northern Africa,Africa,Mediterranean Region,1238.75,1253.93055,376.179165,52.0,652.043886,652.04388,7824.526560000001,99.99999907981652,2726.5271389282525,2261.953795894802,2513.8648690131627,2497.2327245127653,2683.4661956945006,3580.293530186319,4107.289154211596,3679.6931940618992,2789.2167816269452,2540.876578592473,2451.541753071559,2580.4193989863547
78,Nottaway,51.5559187188456,-79.0660333917126,Canada,Northern America,North America,Arctic Ocean,479.52173,1031.1856116666663,309.35568349999994,16.0,164.98969786666666,164.9897,1690.9760710000005,85.40816451292064,872.9103161562007,751.2210490099482,682.5495464055474,1070.6875144699454,4149.859082464374,4358.478970315752,2604.3324853481467,2060.289483330165,2254.0982202138784,2277.9050610807135,2260.4578449893047,1697.9664638636457
79,Volta,5.78851097286026,0.669304759863032,Ghana,Western Africa,Africa,North Atlantic Ocean,368.01956,1439.5119666666667,431.85359,38.0,547.0145473333333,0.0,2999.17665,45.69008058714383,747.9799429682639,784.8207287454185,729.5922958059331,783.7024449313293,767.167418456893,1170.4687095782529,2073.7973533318004,4823.494208416696,10892.810568901206,9191.92940409349,2477.632941405072,1144.2912136039156
80,Skeena,54.2125,-129.579166666667,Canada,Northern America,North America,North Pacific Ocean,194.15941,905.2848466666668,271.585454,55.0,497.9066656666668,0.0,3448.5822299999995,57.71801671207055,317.83856427420955,287.07930280244426,300.17528115526153,793.3669980859564,3564.9152824243465,5090.103101027042,3116.743373173678,1760.7106480938974,1358.8133263316174,1447.7407134691125,925.4604769903232,496.87537452462226
81,Garonne,45.5847143093744,-1.04825635771239,France,Western Europe,Europe,North Atlantic Ocean,974.08386,670.3662891666667,201.10988675,17.0,113.96226915833334,113.96227,1156.9995001,84.6039884256578,1884.5152462413487,2223.668883123943,2002.234019238886,1786.0399363500242,1676.4686914713218,1171.2721047498658,640.2378051423979,409.1137645653388,437.54263081597117,649.9342589088216,1024.3841181186438,1764.2629859921394
82,Red,29.4416788944083,-91.3092426900571,United States,Northern America,North America,North Atlantic Ocean,7142.0254,6515.384491666665,1954.6153474999996,11.0,716.6922940833332,716.69232,8600.30784,100.00000361614978,11502.900584724888,12956.341667554982,16255.437581108747,18539.944126695857,18368.29044657288,14802.770470738393,9865.975182520382,6455.858877920419,5472.937751907357,6151.618706456358,7431.193521506053,10873.848246506077
83,Pahang,3.52533402209087,103.460960619781,Malaysia,Southeastern Asia,Asia,South China and Easter Archipelagic Seas,636.70911,539.7044558333333,161.91133675,31.0,167.30838130833334,167.30836,2007.70032,99.99998726403712,1250.511093325819,918.5088267732917,827.4527918418012,871.142668679772,1011.5655937207281,837.2765838747453,703.2921369614338,672.9318969838429,774.0265888688117,1174.713971085742,1779.3108168115057,2053.5943328080507
84,Moose,51.350212406336,-80.3991610134403,Canada,Northern America,North America,Arctic Ocean,274.53333,738.5462041666666,221.56386125,1.0,7.385462041666666,7.3854613,88.62553560000002,99.9999899577486,501.6882011260717,496.05484939007323,633.7734890792467,2395.507504376637,5255.573793391015,2134.699140720694,1097.422829859398,789.7989005788924,992.5951132325072,1411.9679534685731,1341.2898672970566,857.9082508425289
85,Chao Phraya,13.5402777777778,100.589722222222,Thailand,Southeastern Asia,Asia,South China and Easter Archipelagic Seas,236.81032,651.5103891666668,195.45311675,27.0,175.90780507500003,41.357208,1495.475264,70.84559926919243,456.37399730719653,461.56455513002027,288.24633100527564,324.0394598015576,740.2971534322986,1433.6870034565677,1157.0362743455669,1748.7819892493665,2473.1921681932818,3360.5704677976764,1944.4684583014343,712.1159211551062
86,Vistula (Wisla),54.3591527571573,18.9507776990116,Poland,Eastern Europe,Europe,Baltic Sea,1073.4341,1187.639845,356.2919535,38.0,451.3031411,451.3031,5415.6372,99.99999089303924,1874.4506146748784,1913.7712690865228,3235.6820076794065,3781.8504131977584,2425.9207270386696,1917.0168527506294,1824.5948122543102,1773.1727532360046,1497.8830676728664,1531.8836545280415,1778.769744966057,1836.8298568615317
87,Copper,60.3890336118646,-144.943235627225,United States,Northern America,North America,North Pacific Ocean,222.29373,1316.4489441666667,394.93468325,100.0,1316.4489441666667,0.0,6358.65141,40.25128508386076,358.69062230044483,348.9474813597533,305.7846617131423,377.493379936048,1948.7875248498794,4733.881726752927,6932.953562236142,6061.573195976229,3215.7045008183973,1366.4368785133668,648.0890988474267,435.49116572870884
88,Saint John,45.2666666666692,-66.0666666666864,Canada,Northern America,North America,North Atlantic Ocean,434.23724,1102.1414033333333,330.642421,10.0,110.21414033333332,103.59485,1205.73615,91.1661717780611,724.6527103848149,721.2360763894699,1602.9009585032097,8455.165975455338,4490.649281346265,1656.7669609970646,1110.362158350067,941.8306265084426,526.2196681330167,1249.2602612164308,1240.7876518610133,988.7606624528752
89,Olenek,72.9690334749515,119.844027505145,Russia,Asiatic Russia,Asia,Arctic Ocean,8.5730343,1119.8892255249998,335.9667676575,70.0,783.9224578674998,0.0,3660.465933,38.91186235176825,0.0,0.0,0.0,0.0,0.0,0.0,0.0,0.0,0.0,0.0,0.0,0.0
90,Rupert,51.4857241242691,-78.7686288779027,Canada,Northern America,North America,Arctic Ocean,652.70264,838.2919925,251.48759775,20.0,167.6583985,167.6584,2011.9008,100.00000089467632,1188.1648571763094,1121.0435867838453,984.8972317963585,918.7567347839035,2043.716470246688,2346.3172795509827,1989.5360425619979,1957.100054981764,2070.9563225334523,2031.8136052887291,2079.0908295695544,1790.7413694478491
91,Vuoksi,61.0453113202084,30.178207907013,Russia,European Russia,Europe,Baltic Sea,603.50513,595.5225583333332,178.65676749999997,66.0,393.0448885,393.04489,4716.538680000001,100.00000038163584,1187.3790591521283,1197.061698829,1144.0339101182792,1120.680674755256,1300.1983711347698,1351.2441729731072,1275.6979790460914,1334.6748695984115,1268.7911885900762,1212.6423315840516,1171.6942122180146,1174.1867422836287
92,Kamchatka,56.2269356714154,162.494372394859,Russia,Asiatic Russia,Asia,North Pacific Ocean,488.55319,924.1861366666668,277.255841,19.0,175.59536596666666,175.59538,2107.14456,100.0000079918586,804.5533671456722,777.3500743160785,778.1658722086244,1043.9239976711126,1965.2348494540042,3254.1414225312083,3862.1993414489184,2292.8099392903696,1712.0087201127242,1490.989673337909,1016.9741239440422,874.2116035203663
93,Manicouagan,54.511034191942,-8.25607617990123,Ireland,Northern Europe,Europe,North Atlantic Ocean,853.19354,1102.5707650000002,330.77122950000006,30.0,330.77122950000006,330.77124,3969.25488,100.0000031743994,1605.1385488467345,1493.5336783649066,1361.6946759467676,1270.9651766693762,3416.9293469002323,4290.149149096026,2553.8852830552723,1887.107402870277,1899.11459864082,2096.0018276056676,1895.7360739785963,1729.569740665883
94,Esmeraldas,0.972471169046348,-79.6322389735466,Ecuador,South America,South America,North Pacific Ocean,1076.5438,903.6990958333334,271.10972875000004,14.0,126.51787341666667,126.51787,1518.2144399999995,99.99999729945928,1892.8640759661469,2887.2857073995388,3134.3253232181255,3175.0157104912737,2377.2470905790424,1553.4928379681928,1092.620277706231,756.7906482254424,781.2323797769361,782.355876683637,774.6391491067491,923.8535359376651
95,Doce,-19.6448041286478,-39.8176173021446,Brazil,South America,South America,South Atlantic Ocean,2016.2635,1198.7255508333333,359.61766525,29.0,347.6304097416666,347.63046,4171.565519999999,100.00001445740416,4515.72104403621,3708.6325680210043,3383.4227544577084,2804.332228102857,2210.9490282112283,1964.3345930352518,1804.5422466247483,1668.1331072967455,1589.437765059315,1813.3787538821605,2726.116509988861,4087.572298232556
96,Yana,71.5370070072245,136.650810986634,Russia,Asiatic Russia,Asia,Arctic Ocean,1548.9784,1109.1435964166667,332.743078925,73.0,809.6748253841666,809.67487,6217.004429999999,63.98663837105033,2780.7904275204664,1799.0005450310002,2264.509427768554,1521.6600284850042,842.8168880586144,5234.475704074305,3706.5324575125815,3062.6091106020804,2016.8962513352362,357.7436322063939,66.83868318100073,154.3049138449545
97,Bío Bío,-36.8133611174984,-73.1648066146262,Chile,South America,South America,South Pacific Ocean,384.67883,1031.3728316666668,309.4118495,43.0,443.49031761666674,75.266998,3687.131994,69.282459457341,737.0461025475336,541.0535648544007,508.40235095481995,736.8959869912802,2195.1665803503274,3093.855161205681,3532.8527717803977,3051.970246112299,2515.2036607314253,3134.8619894287804,2060.08626956978,1509.8257820715132
98,Severn-CA,55.9833333333333,-87.6416666666667,Canada,Northern America,North America,Arctic Ocean,291.35159,682.9823225,204.89469675,5.0,34.149116125,34.149113,368.421977,89.90520077967807,589.5031815917885,499.49438927295284,438.0068740717066,445.77129027641854,2132.6628338044648,2193.5821932672707,1498.8614372842062,1332.3806156111434,1461.2916606370818,1438.794174662382,1273.1305061895177,909.0772230050637
99,Nushagak,58.8773543472873,-158.597765537687,United States,Northern America,North America,North Pacific Ocean,710.24805,1171.972775,351.59183249999995,21.0,246.11428275,246.11429,2953.37148,100.000002945786,1164.276823412285,1037.8157225199598,1170.9324588686045,1304.53446165605,2839.589046081009,2926.4231488339756,2696.456909312603,2693.1172239324155,2867.1775040768853,2566.8758211206955,1830.079556179708,1379.5941250160784
100,Tsiribihina,-19.6416666666667,44.4333333333333,Madagascar,Eastern Africa,Africa,Indian Ocean,4732.25,1926.5285933333328,577.958578,80.0,1541.2228746666667,1541.223,8226.557635,44.48068354368295,8787.250539952387,10833.541449827242,7449.173398458246,4236.624104981486,1760.077572200898,1307.2929148853862,1057.3816656060103,926.3623703137667,825.1432790031158,985.0374171174429,1791.358236745369,3983.8696848197956
101,Baker,-47.7896971496275,-73.5674512418469,Chile,South America,South America,South Pacific Ocean,1181.0,869.6015566666666,260.88046699999995,38.0,330.44859153333334,330.44861,3965.38332,100.00000558836292,2050.059991811271,2095.724312983838,1804.3764076625243,1643.8158110552713,1472.3959792032517,1283.4030936846914,1074.7285326530668,1032.1717304327383,1052.4312734057894,1144.7312028514943,1538.0688023161417,1854.1445504117223
102,Araguari,1.2125,-50.1,Brazil,South America,South America,North Atlantic Ocean,650.54138,1020.376765,306.1130295,2.0,20.4075353,20.407536,207.0772216,84.5591340632562,1141.1512896409622,1915.4214201378747,2807.733601087423,3309.1440212812204,3464.3105667363448,2995.3944625666627,2412.7948268245555,1812.9175394548356,1173.741125529951,701.3286742304099,540.2430592145722,652.6329065277274
103,Pur,67.5304407698451,77.87060129305,Russia,Asiatic Russia,Asia,Arctic Ocean,298.04321,882.5766475,264.77299425,46.0,405.98525785,33.270233,2834.276893,58.17692552043322,492.6915083080043,562.5475477973137,487.2262541299287,405.94371224565765,1243.2122286154167,6963.336070999549,3405.9129491537255,1957.8994668927953,1810.8650451063531,1451.660178560736,923.5781445552668,704.9316779194878
104,Nass,55.0125,-129.6,Canada,Northern America,North America,North Pacific Ocean,155.95216,778.820315,233.6460945,100.0,778.820315,0.0,4679.51638,50.07056067012496,256.7718459555913,230.17014644310785,238.96935117903013,631.0273480799718,2366.9133580356515,3632.0124363761943,2891.630918037209,2057.778629477922,1484.4440129486995,1433.7420211055967,740.0901240333025,354.1632272042875
105,Douro (Duero),41.1438451201263,-8.65849070333886,Portugal,Southern Europe,Europe,North Atlantic Ocean,1172.604,619.8103766666667,185.943113,61.0,378.08432976666666,378.08432,2758.065627,60.79035393819261,2323.4755685119194,2643.449649346566,2442.5653450991704,1763.5827155325387,1126.5994724178865,622.5407813078128,307.25328159298226,226.6228096672289,271.3345505772478,436.9482987076492,1054.0137129457482,1632.9144313661222
106,Negro-AR,-41.0234494800966,-62.7915891628873,Argentina,South America,South America,South Atlantic Ocean,698.60608,853.1778816666666,255.9533645,13.0,110.91312461666666,110.91313,1330.9575599999998,100.0000048536486,1410.7672139698177,926.3984534858838,804.1097457881763,733.9124350674454,1123.0666885600417,1952.2151700379336,2246.4210451089903,2327.5033733961736,2043.56396790476,2208.9146600898284,2498.3224019527447,2129.509320412444
107,Kouilou,-4.47332234078369,11.7081088064027,Congo,Middle Africa,Africa,South Atlantic Ocean,1122.4091,905.7695975,271.73087925,5.0,45.28847987500001,45.288475,543.4617,99.99998923567313,1986.333916821341,2072.2672189769496,2291.5551639659802,2620.4627751119588,2674.5008259846004,1343.2966001301572,905.9490843390192,723.6097514492118,616.2450815226562,714.8128914674961,1847.2116786138797,2419.422830754549
108,Loire,47.2666666672714,-2.18583328082338,France,Western Europe,Europe,North Atlantic Ocean,1389.1824,876.4432025,262.93296075,2.0,17.52886405,17.528864,210.346368,99.9999997147562,2611.330033345102,3172.99389966662,2769.0038683259986,2208.219376096939,1616.7568296306697,1241.340503091683,743.8047581760977,558.946952080123,576.1640025275327,784.3929778040257,1476.0045768383127,2295.2871526835993
109,Puelo,-41.6495280013152,-72.3217258533351,Chile,South America,South America,South Pacific Ocean,661.01837,731.4041424999999,219.42124275,26.0,190.16507705,190.16507,2281.98084,99.99999629269468,1269.1493340255672,976.0576342425778,794.915109255152,885.2813316764592,1650.7089434446623,1756.7694512791925,1621.8052902968693,1452.284824926675,1257.0390929214163,1323.365436275409,1596.8396568434064,1511.675593618664
110,Dongjiang,22.7367237106027,113.754291741084,China,Eastern Asia,Asia,South China and Easter Archipelagic Seas,319.09955,730.6320266666667,219.189608,13.0,94.98216346666666,94.98217,1139.78604,100.00000687848444,618.8699888056177,662.1613194240347,836.0831332877003,1318.8421891765913,2069.4754431427145,2897.144389545354,2083.0871131139297,1947.3172483694468,1878.2516309329733,1091.8305611787937,799.5597961255426,669.9728816674904
111,Elbe (Labe),53.8863358671625,8.71214347383363,Germany,Western Europe,Europe,North Atlantic Ocean,825.40302,679.1500016666668,203.74500050000003,32.0,217.32800053333332,217.328,2607.936,99.9999997545952,1413.7680743486694,1485.8294955954266,1853.9048631243622,2020.0889009887214,1389.1680104018353,1076.713636387826,896.1463673122205,848.3397715616413,790.404075854448,883.6211834432405,1030.04358603462,1236.9273076808854
112,Alsek,59.1424163694027,-138.57725204417,United States,Northern America,North America,North Pacific Ocean,133.36259,874.3297533333333,262.298926,53.0,463.3947692666667,0.0,2739.936561,49.27290118344119,240.29755772779396,201.67880883826263,198.87827388289278,329.78431972481786,1315.3320045323921,3274.838239257205,4357.603977093497,3897.725414737046,2523.1014321866805,1212.3667236934393,482.08479024770264,346.0991878169829
113,Tombigbee River,30.6670100890811,-88.0312679145,United States,Northern America,North America,North Atlantic Ocean,1175.2603,676.3777108333333,202.91331325,68.0,459.93684336666666,459.93686,3107.053838,56.294936337651016,2184.2976679722024,2417.2209560479782,2632.5301357094363,2303.102967248884,1190.4675406408744,603.2306268578678,518.8891855932061,325.43615877471217,344.4367948643222,387.3605149646274,681.5950610313264,1510.3264566317428
114,Paraiba do Sul,-21.6158137476618,-41.0176902626468,Brazil,South America,South America,South Atlantic Ocean,1689.8346,910.4379833333334,273.131395,16.0,145.67007733333335,145.67007,1748.0408400000006,99.99999496579294,3958.744004828829,3718.279486413132,3293.564729505982,2331.3079702373416,1593.5223693703408,1300.7955915151297,1112.2010911039063,962.6443387259542,961.6023428161387,1135.002252175649,1783.4133549744517,2968.2117434173942
115,Parnaiba,-2.8,-41.8416666666667,Brazil,South America,South America,South Atlantic Ocean,973.70166,1075.752265,322.7256795,1.0,10.75752265,10.757522,129.09026399999996,99.9999939577166,2005.1017005675358,3112.5053140680147,4816.821504265006,6541.668267667229,3703.5087357071952,1242.2380462945905,826.3602212060904,714.5216045922843,700.0942721872337,771.1488767173552,984.7870173766759,1329.2820042656713
116,Mezen,66.16325,44.086361,Russia,European Russia,Europe,Arctic Ocean,221.94725,798.0075225,239.40225675,39.0,311.22293377500006,0.0,2452.931022,65.67990219119898,373.869570587382,300.7966953144309,293.23400406687676,912.977785809893,6533.064896054752,3181.210956352343,1289.3693653056137,896.7747291502844,1143.0372341276689,1408.4428118933547,1017.5145561846367,589.7500426884976
117,Kinabatangan,5.62881650915599,118.594802570175,Malaysia,Southeastern Asia,Asia,South China and Easter Archipelagic Seas,595.85339,421.32031749999993,126.39609524999996,35.0,147.46211112499998,147.4621,1769.5451999999998,99.9999924556892,1198.5798849010453,1223.2964520887883,625.8888712853632,575.4780455028765,780.0766956234243,780.9350495150547,793.9993061222364,678.7731866781459,848.4274945138609,939.2667720890306,796.5770700001558,1080.4627502992084
118,Nyanga,-2.97904574431964,10.2733034005233,Gabon,Middle Africa,Africa,South Atlantic Ocean,643.0,517.0035674999999,155.10107024999996,6.0,31.020214049999996,31.020216,310.76775753,83.48528184156746,1197.525203488605,1417.920583288447,1439.1006485580692,1511.668928363127,1690.5700718532144,795.3886364456642,460.17280418961985,320.41585350488225,236.85658883000065,375.9460293345231,1281.6852169852332,1393.3327473064614
119,Capim,-1.48333333333333,-48.4916666666667,Brazil,South America,South America,South Atlantic Ocean,448.72064,589.6513941666668,176.89541825000003,25.0,147.4128485416667,147.41286,1768.9543199999996,100.00000777295423,823.1192103639893,1111.0757608022775,1483.0950669749507,1750.650245217331,2112.0285557773755,1682.7037197950604,1273.6769803391367,1026.01601994207,866.4257631190975,760.2092265361603,727.4224405505857,766.0702727268217
120,Rompido de Sama,18.4309061124616,-93.0801144504823,Mexico,Central America,North America,North Atlantic Ocean,131.33333,144.05555583333333,43.21666675,50.0,72.02777791666666,72.027771,864.3332520000002,99.99999039722334,264.2405622426562,293.71128823463704,272.21492629901235,313.72293364028997,315.42463090720497,326.33938454249505,262.5418178663774,248.2065228433572,240.10858827721395,323.68351012827924,345.76244718815656,328.3339685444076
121,Senegal,15.9471383461115,-16.5072857011562,Senegal,Western Africa,Africa,North Atlantic Ocean,147.52837,692.3316475,207.69949425,31.0,214.622810725,0.0,1962.672558,76.2062736703077,290.8655383181561,408.8113356608538,695.9417820314222,1041.4228545822943,1302.3352266886282,1049.0026834490868,889.447090747506,2001.166012898906,3126.5333726054137,3500.239890703129,2085.61109342666,617.7515753067515
122,Papaloapan,18.764709851127,-95.7536237431875,Mexico,Central America,North America,North Atlantic Ocean,361.38663,640.4842924999999,192.14528775,15.0,96.07264387499998,96.072647,1152.8717639999998,100.00000325274696,741.9935186223082,639.6854588068215,619.2217680607823,611.5405296718376,603.1756893152282,1411.905077801144,2522.940592990454,2216.713526008105,2599.5502804493767,1868.162590380167,1125.3699304522518,873.375993411532
123,Glomma (Gläma ),59.2030553729379,10.9491663053325,Norway,Northern Europe,Europe,North Atlantic Ocean,223.93976,672.1408991666666,201.64226975,37.0,248.69213269166664,22.297485,2106.7637740000005,70.5947735190323,361.5753399501466,301.2697247303444,324.2460089111814,788.2743321846784,2644.5006803148226,2517.5925745386216,1828.5587429742604,1436.1831423376266,1200.4105003599789,1086.8590154811338,804.4661971351924,527.6390701598475
124,Apalachicola,29.7298022405944,-84.9807742344535,United States,Northern America,North America,North Atlantic Ocean,767.7594,604.6485591666666,181.39456775,25.0,151.16213979166665,151.16214,1813.94568,100.00000013782108,1532.7641593965398,1825.6226933408707,2176.5387134848093,1899.9193707866202,1239.4862516598391,920.2813278585312,920.7805538829472,826.1998113641345,677.9913577361202,689.6243123154914,764.941929732605,1172.0845012331397
125,Nadym,66.2018102157264,72.1016655075726,Russia,Asiatic Russia,Asia,Arctic Ocean,161.10556,456.9396291666666,137.08188875,1.0,4.569396291666666,4.5693965,48.45373059999999,88.36639734437564,265.15348889388656,253.40445709601724,252.51282472179483,251.95371155906963,1710.1912002003899,3052.8260250551084,1047.0961500996614,786.2675213776902,856.7086239926299,729.1548505538736,508.5087558137027,364.49745614296415
126,Odra (Oder),53.5953258582267,14.5916050860228,Poland,Eastern Europe,Europe,Baltic Sea,610.10498,543.9200641666667,163.17601925000002,41.0,223.00722630833332,223.00725,2676.087000000001,100.00001062372152,1040.278488393751,1090.098657976672,1407.97180098919,1494.2680315086216,1130.5732260290313,911.4412783666452,806.4747092003666,773.0563033755761,726.2925377256096,690.8873941708378,814.8829756071619,1003.7480520928607
127,Daugava (Zapadn,57.0480125282628,24.0575129006557,Latvia,Eastern Europe,Europe,Baltic Sea,235.20508,499.0775575,149.72326725,12.0,59.8893069,59.889305,718.6716600000001,99.9999968274804,413.865502183356,338.91811774660437,685.3031276059401,2893.725143648119,1772.900669659099,671.5558003484524,463.08035701387837,501.5079884396754,497.40057212274394,646.0028276467236,795.0920945850291,587.3516246264596
128,"Hayes, MB",57.0208333333333,-92.2458333333334,Canada,Northern America,North America,Arctic Ocean,319.72092,629.6783675,188.90351025,10.0,62.96783675,62.967842,755.6141040000001,100.0000083375899,613.5772498428246,511.40667024877973,455.72008736492506,590.0399335840448,1876.4373811329972,1452.9590461018936,991.4440382376611,925.5328356979194,1112.295609824724,1179.1860675147136,891.6211302232655,691.6392504939809
129,Mangoky,-21.4489275669713,43.4628765539475,Madagascar,Eastern Africa,Africa,Indian Ocean,1620.7693,527.4686475833333,158.240594275,100.0,527.4686475833333,527.46857,2422.727113,38.27600503050499,3388.0989290666093,3070.3015730911716,2079.0642170506244,798.4664561493809,402.43463433767937,328.2291097060678,280.5541109016864,243.5218809948165,199.4309696504165,194.14931485463802,422.30338228980474,1755.9082513050396
130,Feuilles (R aux,58.770498198247,-70.1027401701882,Canada,Northern America,North America,Arctic Ocean,125.86906,581.2958106666667,174.38874320000002,98.0,569.6698944533334,0.0,3474.551737,50.82697556998118,225.46059921805653,133.68336510279283,95.58592590130428,89.01188100552733,852.9248692235271,3995.818581249447,2088.828534078074,1361.1625485978807,1333.9331373615237,1309.789594590109,866.7497435686453,404.356586835898
131,Melezes (R aux),58.2333333333333,-67.85,Canada,Northern America,North America,Arctic Ocean,102.69598,597.6352433333334,179.29057300000002,98.0,585.6825384666668,0.0,3631.6480555,51.67259019718197,163.8965637027341,111.73054227962822,85.98809048585196,86.0668916674306,1883.4454523047248,4179.064803736534,1372.1686030085223,1205.6691832098616,1393.550614716474,1472.7280303909426,764.8006542989873,330.5015334435371
132,Churchill,58.7371667387726,-94.2072857017664,Canada,Northern America,North America,Arctic Ocean,283.59802,482.332525,144.69975749999998,17.0,81.99652925,81.996529,983.958348,99.99999969510904,0.0,0.0,0.0,0.0,0.0,0.0,0.0,0.0,0.0,0.0,0.0,0.0
133,Kelantan,6.21486078634533,102.235066127353,Malaysia,Southeastern Asia,Asia,South China and Easter Archipelagic Seas,797.92267,529.4374491666666,158.83123475,25.0,132.35936229166666,132.35936,1588.3123199999998,99.99999826860252,1482.6162532915353,841.7052204701358,658.5652441863563,565.8774853555351,711.0741939299105,640.0437977429182,594.5896388107192,636.2019969491802,859.3038062215434,1073.5137366384033,1677.5562595397726,2441.9797328560176
134,Clutha,-46.3271706040934,169.836573462451,New Zealand,Australia/New Zealand,Oceania,South Pacific Ocean,564.5517,549.9596266666666,164.98788799999997,55.0,302.4777946666667,302.47778,3629.7333600000006,99.99999515115924,1057.8357913675393,948.6509359998955,902.3215345400477,967.2397432773331,1134.44725439969,1031.844456736193,891.0563956153252,928.1952581792722,1040.5586178470207,1081.848403718174,1267.124891944676,1305.9093580655929
135,Cross,4.11350555555556,9.55263969999346,Cameroon,Middle Africa,Africa,North Atlantic Ocean,68.324997,541.7723939166667,162.531718175,67.0,362.98750392416673,0.0,2119.7203100000006,48.66375763821612,119.0661325189583,109.85610127527401,152.97382121566918,239.3854376551958,500.0823870500911,993.5591221070139,1708.2523642110975,2786.5810854634365,2681.8883231545906,1638.6847200675004,611.8877824406015,242.53254145482785
136,Kemi,65.7751589254324,24.4831000246724,Finland,Northern Europe,Europe,Baltic Sea,289.74719,544.9962641666667,163.49887925000002,12.0,65.3995517,65.399551,784.7946119999998,99.99999892965626,503.3722273864215,487.57053486477963,413.1579870915706,469.79370126503477,2892.838261266002,2250.8023504409107,1153.1745226710725,1003.0379891598194,1021.124043875245,1044.928453719006,817.4609912180957,621.1978328700072
137,Gota,57.6849422117129,11.8663169856195,Sweden,Northern Europe,Europe,Baltic Sea,565.35345,527.225615,158.16768449999998,58.0,305.79085669999995,305.79083,3669.48996,99.99999126854208,980.1302932580257,949.9124291634022,1016.0345372500312,939.3838991056767,908.7134863844649,880.0377437923163,834.6936736877843,880.0594254874231,883.1820548627074,882.6135901551714,953.4644978273568,1011.5131722430323
138,Han,37.7625,126.6875,South Korea,Eastern Asia,Asia,North Pacific Ocean,137.79167,525.4683208333335,157.64049625000004,27.0,141.87644662500003,0.0,1106.658844,65.0013251157102,234.4687575825699,248.33378044594215,428.4714251454196,879.1247240608234,580.6322005153812,813.350466299242,3271.3768770268666,2304.927622850581,1625.1048372068226,460.2917195335511,361.87655490412607,249.31928682963118
139,Back,67.153556,-95.345694,Canada,Northern America,North America,Arctic Ocean,58.949692,605.2200732499999,181.566021975,100.0,605.2200732499999,0.0,2750.8952417,37.877340867207714,0.0,0.0,0.0,0.0,0.0,0.0,0.0,0.0,0.0,0.0,0.0,0.0
140,Onega,63.9665,38.039056,Russia,European Russia,Europe,Arctic Ocean,9.2177238,436.4044029833335,130.92132089500004,69.0,301.11903805850005,0.0,2055.77809,56.892729844617485,17.323098592915343,48.768143394415205,64.50676783474124,773.4856214593359,4513.613872477501,1704.0347192584588,944.7920121475441,674.7307748652955,748.2796456088815,930.6734572318433,517.4311302537941,190.26458168499119
141,Tapi (Tapti),21.0976464182803,72.6668718415261,India,Southern Asia,Asia,Indian Ocean,71.590912,488.8900725,146.66702175,48.0,234.6672348,0.0,1075.2831353,38.184677983714266,143.26573380578037,127.37157892788373,139.6878765045116,136.44088567971352,119.34515333293115,567.826144178946,2092.8181920360053,3702.5398328590154,3037.8250910700312,712.6532539489755,308.97999915223414,212.33803512192162
142,Anabar,73.2645222630683,113.588283275929,Russia,Asiatic Russia,Asia,Arctic Ocean,0.30934784,471.2079605533333,141.362388166,100.0,471.2079605533333,0.0,1814.710249,32.09322989911945,0.0,0.0,0.0,0.0,0.0,0.0,0.0,0.0,0.0,0.0,0.0,0.0
143,Jequitinhonha,-15.8483412253111,-38.8707436311105,Brazil,South America,South America,South Atlantic Ocean,807.97815,402.26653166666665,120.6799595,6.0,24.1359919,24.135994,289.631928,100.00000870069898,1825.9812416219997,1334.0998424096233,1235.8944203209178,942.0497953693882,571.6141049306394,467.4702830455781,406.97126614081486,358.5531002752306,325.1740967498812,471.66710182667305,1124.41552385824,1841.9185442578612
144,Kuban,45.3541666666667,37.4208333333334,Russia,European Russia,Europe,Mediterranean Region,254.49367,379.6492625,113.89477875,28.0,106.30179350000002,106.3018,1275.6215999999995,100.00000611466632,411.2159122848373,434.1884247456098,595.2531019857211,729.0989698552596,1168.6368439178068,1377.5448374070186,1251.9448660919493,824.0929144900007,573.1493310302982,445.4529553768867,403.6614134821455,496.09964537271884
145,Pánuco,22.2621763904322,-97.7883517195522,Mexico,Central America,North America,North Atlantic Ocean,169.76956,431.4007183333334,129.4202155,9.0,38.82606465,38.826065,339.163742,72.79554449169925,356.09161663743424,299.82235174638197,263.4787948811279,261.47199512329047,305.6981257861855,858.8881462643052,1771.7742577852919,1343.4783499275156,2398.6030228724876,1955.1396681187114,806.142068703393,513.5112009278005
146,Limpopo,-25.2047315122252,33.51085154358,Mozambique,Eastern Africa,Africa,Indian Ocean,763.66669,370.0076415833333,111.00229247499998,81.0,299.7061896825,299.70621,1418.4869250000002,39.44104186677804,1575.886052787311,2916.5206189667247,2251.9225716041356,841.2308702457113,368.9776944145823,179.95063539488186,112.4172691849909,75.13887289544155,43.81506866662803,36.6215026942847,526.4621575860211,151.87938957124044
147,Winisk,55.2666666666667,-85.1625,Canada,Northern America,North America,Arctic Ocean,210.08368,446.7649833333334,134.02949500000005,4.0,17.870599333333338,17.8706,196.300757,91.53804028359576,420.36282172769995,316.3324941125572,263.6191133447438,295.23734081665424,1308.7705488789022,1451.1178725751674,970.6647578954336,785.3889758059997,908.8260081563009,991.3285436153724,943.0878700056047,668.7672794122193
148,Ebro,40.7259334895961,0.867250651972722,Spain,Southern Europe,Europe,Mediterranean Region,597.44995,467.69147,140.30744099999998,9.0,42.0922323,42.092236,505.1068320000001,100.00000879022046,1290.8750429214574,1389.105218700381,1495.8437832218028,1298.8593536638482,1263.438628584268,1078.7328918369035,577.8557461164919,397.0072109065644,460.36210743606756,626.9289384478216,999.4901505747272,1230.4085337892766
149,Narva,59.4669516427316,28.0459554444979,Russia,European Russia,Europe,Baltic Sea,284.10913,394.6263558333333,118.38790674999998,41.0,161.79680589166665,161.7968,1941.5616,99.9999963586014,504.3891212069651,479.41312242327797,589.1051985960828,1141.181780639667,1152.490461921127,922.8409478970924,771.7413562932592,674.0121683337039,638.349765637406,648.4687109475768,678.4190742258471,587.4780957361085
150,Colorado-AR,31.8135685478587,-114.799588621522,Mexico,Central America,North America,North Pacific Ocean,59.419811,56.47256691666667,16.941770075,59.0,33.31881448083333,33.318817,399.8258040000001,100.00000756079326,121.07583175876087,119.34327915963117,124.70378518740722,112.61128834620767,118.54668589050256,121.08727726252746,130.23570845269737,133.1985302498156,133.54388048958077,105.8707660187721,104.94513796610138,107.3507646939986
151,Seine,49.4373217058466,0.247364927009091,France,Western Europe,Europe,North Atlantic Ocean,390.14285,333.59523833333327,100.07857149999998,30.0,100.07857149999998,100.07857,1200.94284,99.99999850117766,739.3180734252377,1107.058472678944,817.1586474924176,726.6415066273865,594.3303625495914,474.08304709084945,403.2573869810981,394.92529751988025,399.03619133033374,461.8335866454569,652.8321390369236,855.9221591997052
152,Coopermine,68.011278,-115.089306,Canada,Northern America,North America,Arctic Ocean,111.80946,256.9333545,77.08000635,25.0,64.233338625,34.729454,560.4757960000001,72.71351191319667,178.56462392087596,145.41479478625823,122.60667094030222,108.07464197392709,272.68372599608887,1124.6678758784467,701.6157690054359,556.8224340981241,563.1376176596126,410.7128813422951,304.3125267755483,230.4990072030653
153,Dnestr,46.1233109728664,30.4272960206904,Ukraine,Eastern Europe,Europe,Mediterranean Region,175.5625,312.69862916666665,93.80958875,26.0,81.30164358333333,81.301643,975.619716,99.99999928250732,305.5585685398996,418.67275869718037,877.7073600772837,1099.3926969615663,806.7227320278943,794.2734350470356,876.362015480122,670.0253398489921,510.1100922110965,412.48790714377606,410.70439978212767,387.57938283552943
154,"Tagus (Tejo, Ta",38.6751766331684,-9.29149656471996,Portugal,Southern Europe,Europe,North Atlantic Ocean,563.59235,316.293473,94.8880419,66.0,208.75369218,208.75371,1450.153491,57.889335028287405,1139.0232053029345,1446.0293594730165,1300.6937585684086,779.027920337896,459.1721136735709,260.0072175549189,154.49419819360236,108.19128389872756,129.03844930091861,266.9026416351706,630.8878274174511,1048.0782781742503
155,Itapecuru,-2.97083333333333,-44.4416666666666,Brazil,South America,South America,South Atlantic Ocean,137.44522,216.92208500000004,65.0766255,100.0,216.92208500000004,72.368591,1022.2444907,39.270801261045705,311.9051284164374,689.2893618362896,1085.4795782383912,1386.3781717535537,948.1480439570081,281.025850829526,156.2025270140614,115.76760276589656,93.35116646215155,97.46277242592373,112.45941963325984,161.19549484555225
156,Burdekin,-19.6570463999303,147.579496848056,Australia,Australia/New Zealand,Australia,South Pacific Ocean,713.09698,309.8609701666667,92.95829105,82.0,254.08599553666667,254.08598,1116.354098,36.61339459901156,1496.8129689423924,2771.172526445714,1779.8463797222284,735.2728287533014,272.5801864642605,123.4041167666374,77.78707329457158,47.96621643152636,23.718505303232384,33.658824671659524,100.57289241815145,323.7783573948297
157,Murray,-35.5552420354902,138.879923912682,Australia,Australia/New Zealand,Australia,Indian Ocean,145.17905,269.97843033333334,80.9935291,5.0,13.498921516666668,13.498921,139.79865059999997,86.30235782626242,263.71718169974287,158.9318338063807,137.49883434390298,180.10693351457783,265.6014197470556,381.2977156939109,496.274880993053,743.5539300522546,965.468244319108,1053.965472979927,945.8585721241271,618.6433861797539
158,Grande de Santi,21.6400699103902,-105.442694167579,Mexico,Central America,North America,North Pacific Ocean,73.180771,265.3955105,79.61865315,27.0,71.656787835,0.0,419.78892500000006,48.81939516632907,148.7844747533957,121.37249522160553,132.24615994079446,125.30748458650578,119.63990531065768,255.59263125402163,1210.2587258633025,1653.8534840827776,1575.8301233116279,688.262312139323,310.48378068641165,200.51559436859745
159,Bandama,5.13943688394188,-5.01127443078721,Ivory Coast,Western Africa,Africa,North Atlantic Ocean,71.123688,263.01249733333333,78.9037492,91.0,239.34137257333333,0.0,1275.084613,44.395605298359584,158.88303296991063,145.07422203439123,129.85236679759623,161.43230808586355,204.18709786812602,434.49068981331135,521.029391135364,744.1395701655558,1851.8355588895042,1861.773061151315,706.4868561954062,248.55196538461743
160,Cauvery,11.3611130739905,79.8224091306269,India,Southern Asia,Asia,Indian Ocean,257.60001,244.05000099166668,73.2150002975,100.0,244.05000099166668,184.38501,1645.005002,56.170354275617285,505.77912327076865,322.2333124997439,76.12038995195412,26.742330271175092,15.392472699795515,76.64577935382398,691.586123725904,1088.2165896348865,1058.4167749415271,772.4569039602435,774.0665085117244,425.1079612377561
161,Juba,-0.249232027655513,42.6316305342495,Somalia,Eastern Africa,Africa,Indian Ocean,41.732224,192.86095391666663,57.858286175,63.0,121.5024009675,0.0,965.1326969999998,66.19435016063028,90.17827433852621,67.7292859548651,86.85537504824282,215.06499414718164,466.34746530825373,403.68956529534785,376.2487297668217,606.0782177663814,658.0756181265434,977.3115023775999,753.853107166709,284.7989968384926
162,Fitzroy-QX,-23.5041666666667,150.704166666667,Australia,Australia/New Zealand,Australia,South Pacific Ocean,768.69684,404.2047084166666,121.26141252499998,37.0,149.55574211416663,149.55574,1187.1819179,66.15047011444393,1660.7203104280643,1738.2961647225345,2665.952559949894,532.2943721409039,552.5002750441807,176.40807052375763,716.4589615023154,269.5392893730301,202.67417245212724,891.3351338742696,239.51346534311892,552.5711122471927
163,Brazos,28.8797922298476,-95.3807698298319,United States,Northern America,North America,North Atlantic Ocean,212.10745,214.39763233333332,64.3192897,8.0,17.151810586666667,17.15181,205.82172000000008,99.99999657956424,448.5313029089546,508.75024687957455,525.6549609171009,598.3437274826952,788.7235503940954,585.5805796795763,325.8910889352812,178.3316366038783,215.4943015719586,307.0684131458364,355.0746890757657,421.17227835928054
164,Comoé (Komoé),5.19426371270689,-3.72314998262605,Ivory Coast,Western Africa,Africa,North Atlantic Ocean,14.035833,182.904581325,54.87137439749999,80.0,146.32366506,0.0,667.9375272,38.03995790918442,27.581486506884897,12.460507011094753,10.781846716728564,20.7566681529447,41.88268009061793,123.81824492081036,259.53488847318926,669.732172911985,1543.1750413108236,1222.1004873327502,401.0938502735125,91.84162033654947
165,Jaguaribe,-4.42821580474832,-37.7747166695077,Brazil,South America,South America,South Atlantic Ocean,19.867796,108.348832375,32.5046497125,100.0,108.348832375,0.0,396.321545,30.48191170381929,42.7778036536132,164.3683957798645,538.6649403367768,1155.3478806656644,666.9671537264753,129.89705936108732,36.57387437341007,13.766773032397413,11.765700710489968,12.036727724970838,11.64401142222962,19.40477342995678
166,Daly,-13.3125,130.279166666667,Australia,Australia/New Zealand,Australia,Indian Ocean,487.19,270.4893606666667,81.14680820000001,100.0,270.4893606666667,270.48935,1091.7485399999998,33.63498097513587,1006.6362048815793,1905.6643794392228,2326.049043409789,661.509570349553,122.51221630080714,74.65218435201963,58.72908163459688,50.626831436801304,46.44244090981413,46.49191670022384,63.91332024259682,244.40128461800316
167,Ouémé,6.35305556340978,2.44416666871957,Benin,Western Africa,Africa,North Atlantic Ocean,9.4132624,178.4386369916667,53.531591097500005,100.0,178.4386369916667,0.0,781.6006199999999,36.50183956686567,18.69303941748045,11.783248099496644,11.369202670089349,13.719997767346786,23.550186429917844,94.23904768991486,353.895932514224,880.9251486359971,1316.3842854585291,1181.8896592087299,327.90788938903825,52.23279644650517
168,Guadiana,37.1699514696647,-7.39336744500113,Spain,Southern Europe,Europe,North Atlantic Ocean,349.47629,154.45424816666664,46.33627444999999,100.0,154.45424816666664,154.45425,811.4750101,43.78184369222632,748.0729606364624,901.167454037003,750.6964721112473,328.39820397049766,143.14890808750673,78.46159024433766,36.925601788533626,31.583186091094596,49.85237743214364,99.35903049396249,227.7966857989688,496.47584974717313
169,Anderson,69.916667,-129.021917,Canada,Northern America,North America,Arctic Ocean,17.374823,135.2710186666667,40.58130560000001,74.0,100.10055381333336,0.0,525.4954490000001,43.7472978404578,32.58282085957793,36.51147367213647,31.75349334577742,17.05369257089915,524.6878141104394,1001.0855712913491,355.6927472603341,193.99993261595208,237.99246094828564,125.38025611279451,67.55980736049219,47.4817578774302
170,Victoria,-15.4416666666667,129.929166666667,Australia,Australia/New Zealand,Australia,Indian Ocean,279.73212,142.1477720916667,42.64433162750001,100.0,142.1477720916667,142.14778,483.970542,28.372501310813277,589.9239500306236,1542.7576085893975,1343.0332378223823,135.57296827599285,21.016521418218403,3.6263553147577428,2.5128644406406853,0.9540094849997467,0.48974607193411196,1.2620556186499907,14.667989832888795,173.3903831294442
171,Roper,-14.7243009382366,135.35939268645,Australia,Australia/New Zealand,Australia,Indian Ocean,212.35532,119.70169393333332,35.910508179999994,100.0,119.70169393333332,119.7017,491.703647,34.231181339411506,446.26102167905776,800.6383331636521,1111.3212161898591,331.9139286218578,21.99739350157316,10.38941562443296,7.885376230365101,5.404044560535844,3.717630629348173,2.8526553847327216,7.162281423618171,103.44490263859208
172,Liao,40.9020968869,121.806483891054,China,Eastern Asia,Asia,North Pacific Ocean,51.368084,107.534362,32.2603086,8.0,8.60274896,8.6027498,103.2329976,100.00000976432074,82.32596067943176,192.75290387608527,124.40592343056159,144.6789083959046,119.60558188254569,152.04134190425674,310.54748960396165,582.6558019308517,291.641424644904,134.96454309192728,112.19218244124652,68.25550852123853
173,Orange (Senqu),-28.62825346644,16.451704394551,Namibia,Southern Africa,Africa,South Atlantic Ocean,236.30598,201.16535016666668,60.34960505,2.0,4.023307003333334,4.0233073,48.2796876,100.00000737370192,468.27978170048124,841.854543405593,776.312343753019,552.9474033033832,387.0899928105636,249.18773813368173,158.4778810295503,127.81078080445414,163.02324158370163,260.96991100703394,369.9637182729198,430.8677704916915
174,Paraguacu,-12.8551129256564,-38.8219527434966,Brazil,South America,South America,South Atlantic Ocean,147.92897,74.42385511666667,22.327156535,2.0,1.4884771023333334,1.488477,15.862427319999998,88.80680403220005,352.22848910842333,325.6648058369464,303.1188010237403,266.7116919025323,135.61929993185228,55.68169097754174,61.12407070010345,5.367374039388499,55.30084608590339,63.913306042826605,117.88721620067163,374.2955400567483
175,Contas [de],-14.2666666666667,-38.9916666666667,Brazil,South America,South America,South Atlantic Ocean,116.9743,97.15421699999996,29.14626509999999,28.0,27.203180759999995,27.20318,326.4381599999999,99.99999720620906,273.00135556114714,316.4985887153797,289.75137132324505,236.05928823831817,170.43477361232493,161.1996977759392,173.7403134630086,163.88399075700517,132.45826815508363,137.7240790634578,245.61554403519494,417.71978100738056
176,Guadalquivir,36.8059643316708,-6.34256666004267,Spain,Southern Europe,Europe,North Atlantic Ocean,453.27856,313.9632023333333,94.18896069999998,4.0,12.558528093333331,12.558529,135.0955363,89.64395568227138,884.9201158563208,1250.1051743575663,1395.613776471933,937.6544927191743,715.9895522280631,383.6295494385876,232.83690041526802,176.31076872105328,223.971206006597,311.3453075212871,539.3769566577992,838.6184060245482
177,Yaqui,27.6537912488909,-110.607709087059,Mexico,Central America,North America,North Pacific Ocean,84.625,78.51041666666667,23.553125,38.0,29.83395833333333,29.833958,358.007496,99.99999888270496,173.04118934946393,225.64797440117835,175.59294471653607,153.54244111659872,120.41483423199743,191.95645769667843,207.94601430984957,202.20213054074367,177.81706801456585,114.02913011049503,114.46844406498586,117.87023303865418
178,Colorado-TX,28.5936971826839,-95.9825441353419,United States,Northern America,North America,North Atlantic Ocean,67.989754,78.44011391666668,23.532034175000003,23.0,18.041226200833336,18.041227,216.49472399999996,100.0000044296693,151.25222348384216,156.23363391527994,156.01797695243434,176.46017798330035,212.6731070301035,232.421805683796,155.72469320123562,89.5841304703179,119.55033913027533,139.39130175346418,159.38487546236902,136.91745551606365
179,Rio Grande (Bra,25.9518226300732,-97.1502999513182,Mexico,Central America,North America,North Atlantic Ocean,28.687038,47.47352833333332,14.242058499999995,16.0,7.595764533333331,7.5957642,91.1491704,99.99999561158948,58.734409385628425,56.50764565381112,44.6261213770919,44.83952594163478,95.45121487006115,120.26733597786482,108.61918212320288,98.55046739104365,217.45752943043175,204.59383094224972,86.62487050481268,68.5060479442676
180,de Grey,-20.0,119.175,Australia,Australia/New Zealand,Australia,Indian Ocean,62.572521,55.30192634516664,16.590577903549992,100.0,55.30192634516664,45.981941,235.047595,35.418837783478494,133.0807208444019,369.4223287391576,573.4672266051252,192.36231029623792,24.496847294386825,17.476592755904637,6.4091888602909055,6.8139149477522505,0.4342188950274263,0.12573631750903214,0.05525911665956414,87.89847213745128
181,Gascoyne,-24.8699009022558,113.634621067062,Australia,Australia/New Zealand,Australia,Indian Ocean,16.035698,22.91244643083333,6.873733929249999,74.0,16.955210358816664,9.1619644,98.9157521,48.61620214213585,34.166285444929976,215.10505406077147,82.92661500924714,27.469317922371985,37.63661821219015,93.60010170265218,46.84693921195204,19.9016462352779,0.5287058653925845,0.23321719889463327,5.773808756491575,0.7394037115738097
182,Avon,-32.0479434634495,115.744294897158,Australia,Australia/New Zealand,Australia,Indian Ocean,2.9827476,15.399906855833336,4.61997205675,100.0,15.399906855833336,0.0,66.45023619999999,35.958137508057554,6.2656034008587564,6.989016112693529,1.2763234052026882,2.715869128486374,8.119901818410453,43.50504001050124,108.481564501277,108.92635510050928,55.90550654806048,19.097761133899162,4.980057126550235,1.054546234837733
183,Fortescue,-21.0,116.095833333333,Australia,Australia/New Zealand,Australia,Indian Ocean,14.892198,9.843296742416667,2.952989022725,41.0,4.035751664390833,4.0357513,21.51527503,44.42641011966143,31.865188529266167,92.2913473569794,63.39980274055444,8.058514693286753,6.864298922381883,14.127216230396787,0.8640806857784432,0.529578976682029,0.2764571170551221,0.17549882068414224,0.10418870982967375,31.770993375892644
184,Murchison,-27.7082812578082,114.163282166178,Australia,Australia/New Zealand,Australia,Indian Ocean,0.37343749,5.531280705,1.6593842115000002,100.0,5.531280705,0.0,33.3540167,50.25059366728824,0.7748808394840194,11.097011737854997,27.24282274606882,21.07054773879231,7.638767435756504,16.18686795487489,31.92749879842583,14.340171873425653,0.9963993625495691,0.31823863602089764,2.98421228635245,0.6600670974242715
185,Grijalva,18.5831888381991,-92.6878213054848,Mexico,Central America,North America,North Atlantic Ocean,371.97879,536.1532808333333,160.84598425,14.0,75.06145931666667,75.061455,900.7374600000002,99.99999424915704,703.0783897471622,632.2243703100798,542.8635983201824,478.11626220829567,499.34881916500683,895.7915109545535,1249.8272033683238,1177.1787604405702,1825.9665078506393,2066.7985109910774,1164.0596122480606,877.9040424772769
186,Baleine (R à la,58.2385027205862,-67.6189243366506,Canada,Northern America,North America,Arctic Ocean,110.87959,505.5791608333333,151.67374825,82.0,414.5749118833333,0.0,2632.477118,52.91518779322592,176.95710957496135,127.02093612222106,105.14669996392468,108.60960391904423,1467.2456944920327,3756.003039122705,1384.765630995655,936.6577237394266,949.9499916254881,1045.3385994477003,650.2702968738997,334.93708515924857
187,Shinano,37.6708333333333,138.779166666667,Japan,Eastern Asia,Asia,North Pacific Ocean,419.6463,632.1412125,189.64236375,36.0,227.5708365,227.57082,2730.8498399999994,99.9999927495103,749.4796716572368,826.51677162575,1088.368589861424,1923.560651508785,1608.475547349922,1378.6561870935418,1635.9696859565468,1027.6458759263458,1125.4315814818965,1014.5261175163089,1041.150504157909,932.6082942057742
188,Klamath,41.5446200329464,-124.068630293651,United States,Northern America,North America,North Pacific Ocean,874.93646,486.1089475833333,145.832684275,91.0,442.3591423008333,442.3591,3045.5577700000003,57.373400154740125,1598.1331437117406,1716.8795531569767,1578.8003525000981,1345.4382162980262,1106.983508252056,641.3835297837189,276.6817462367825,174.0951509629183,172.25913385804736,248.78775671254283,635.0504244868658,1203.1461613380577
189,Lule,65.5718867461024,22.1345382810968,Sweden,Northern Europe,Europe,Baltic Sea,322.84299,503.6163350000001,151.08490050000003,27.0,135.97641045000003,135.97639,1631.7166800000002,99.99998496062666,567.2318393912695,578.5355235002849,534.4595645034354,504.9534938547077,987.048768714721,1661.4701190397577,1760.4009266329776,1457.0469452187535,1127.893460465465,813.3037589809684,620.3551738707757,570.034408841499
190,Petit Mecatina,50.4684389867713,-59.6078915701443,Canada,Northern America,North America,North Atlantic Ocean,154.8125,468.2694633333333,140.48083899999995,24.0,112.3846712,14.331665,970.3185100000002,71.9492035434574,260.17382720659583,208.1836895120157,190.4290603574839,354.45241352142006,2526.016627192003,2092.6605937512886,950.0350673527194,702.8549390363667,711.4792810744602,855.0932447942935,798.5424177735905,446.0182383177521
191,Grande de Matag,12.9067964922357,-83.5196444566047,Nicaragua,Central America,North America,North Atlantic Ocean,170.97501,500.7541116666666,150.22623349999998,42.0,210.3167269,20.748795,1643.657905,65.12629504188683,370.50767119659025,185.03734628706744,109.96642984477648,133.83851992987553,793.1552083691867,1696.8258052903254,2228.2549707802873,2294.896016931329,2170.4527155711367,1524.2836146444672,731.775148713133,683.4008848008797
192,Connecticut,41.2801978100137,-72.341230272304,United States,Northern America,North America,North Atlantic Ocean,427.569,488.1705683333333,146.4511705,13.0,63.46217388333333,63.46217,761.5460400000001,99.99999388086935,801.9362565956267,770.3720293361456,1399.650463342348,2389.2450109044494,1427.9606118017714,781.1432002639573,475.78623662273975,409.52409617278795,435.11424923878735,615.2847539568911,845.4881315638689,1000.2813467674488
193,Gurupi,-1.13714694609926,-46.0722367249053,Brazil,South America,South America,South Atlantic Ocean,297.18585,468.3165841666667,140.49497525,5.0,23.41582920833333,23.415827,246.03426175000004,87.55980821100576,628.8497211808289,1038.0242377800246,1588.8940858157714,2079.638274834178,2135.0049534533796,1176.1964650602795,697.8360103124252,489.51985503890694,380.90108507652394,326.12087765608544,303.4923343979357,355.87478162446376
194,Ishikari,43.2632018915747,141.371035601016,Japan,Eastern Asia,Asia,North Pacific Ocean,242.10286,469.7800308333333,140.93400924999997,16.0,75.16480493333333,75.164803,901.977636,99.99999742787422,404.85328570298725,352.26292728867037,530.2196016778713,2018.4374600788271,1554.4664972833746,669.7537167886353,630.5380537095406,1005.4019260947058,905.0324893719209,819.7438740214297,820.9395270597325,596.5782111120044
195,Moisie,50.2541666666667,-66.0333333333333,Canada,Northern America,North America,North Atlantic Ocean,126.07149,408.9927125833333,122.697813775,22.0,89.97839676833334,3.3736725,776.2767364999999,71.89473291930594,233.72491671559183,182.20090123546987,157.68035245060935,307.3448997972892,2115.4966680762514,1594.9994749313132,847.9096812189761,652.6588439758899,715.5368574655433,799.2447227667487,637.3943193965238,373.89279074889987
196,Ribeira do Igua,-24.6672547374572,-47.4150085415916,Brazil,South America,South America,South Atlantic Ocean,1110.1959,839.2769816666668,251.7830945,40.0,335.71079266666675,335.71075,4028.529000000001,99.99998729064792,2353.648565856797,2433.577448975612,2506.7587718337995,1970.5849677146891,1609.0849871229682,1499.0182329846389,1338.7346281143532,1185.9631807799656,1413.4645311520114,1470.690693764762,1504.6656424532014,1713.5324285311603
197,Buller,-41.7291666666667,171.5875,New Zealand,Australia/New Zealand,Oceania,South Pacific Ocean,488.79999,456.11017583333336,136.83305275,26.0,118.58864571666668,118.58865,1423.0638,100.00000361192532,940.0254765035978,500.29734353944826,549.6486148910149,596.7838259214791,1105.0647445938594,796.2816769041583,921.6562315427238,855.9698630098344,1060.6654108749924,1112.7438824029311,1038.1712823315756,1100.88309010737
198,Nyong,3.25836936368564,9.90776591154674,Cameroon,Middle Africa,Africa,North Atlantic Ocean,251.73077,446.3048833333334,133.891465,2.0,8.926097666666669,8.9260979,107.1131748,100.00000261405756,451.5352693953771,264.8025668693779,304.6288133161761,535.9367546167904,782.4316449346516,926.6796845615381,731.918363771534,620.322325971588,1159.6543255091372,1641.7205653915578,1603.3292047272132,873.7871480505661
199,Oujiang,27.9784066790793,120.817220756539,China,Eastern Asia,Asia,North Pacific Ocean,117.52222,445.61389333333335,133.684168,73.0,325.29814213333333,0.0,2409.3695920000005,61.722086088963046,204.7514017071131,534.2047164111111,872.81173779208,1257.0248171934174,1666.0750973885572,2201.165907787625,879.3862442658387,755.4701973140062,876.2102459186996,342.2993925184375,222.7728050898654,202.26794904489176
200,Save (Sabi),-20.9291666666667,35.0625,Mozambique,Eastern Africa,Africa,Indian Ocean,1136.0,443.0569441666667,132.91708325000002,100.0,443.0569441666667,443.05698,1909.10205,35.90776300758164,2396.3454009403476,3052.098521030215,2969.098463079986,1280.4873968836412,461.00238392644945,204.62321111647438,121.8080229828525,81.85804033457886,50.177312654148565,29.47406127216183,72.09086717993071,384.57813323515387
201,Kobuk,66.54237526229,-161.23541378477,United States,Northern America,North America,Arctic Ocean,73.355247,424.1356364166667,127.240690925,100.0,424.1356364166667,0.0,2404.758756,47.24822575463392,124.62985280965812,103.6757954719865,91.38420752157194,89.29274741309759,1432.6913016443891,2238.9337645146406,1091.8284197421663,1446.8227019529998,1377.2315798353245,670.2709716925306,278.32872477352527,169.1728424598849
202,San Juan,10.9400000732664,-83.6994444110014,Nicaragua,Central America,North America,North Atlantic Ocean,437.06131,394.0367,118.21100999999996,35.0,137.91284499999998,137.91284,1654.9540799999995,99.9999963745219,935.7173396455365,810.3350847509865,670.2357990597224,570.8490765947856,627.3827271365916,718.0620270747494,848.3162023987351,921.8091811638213,1026.4149255348111,1034.86195757375,975.9654474666943,996.1314743453752
203,Coatzacoalcos,18.1574663785551,-94.4108395738998,Mexico,Central America,North America,North Atlantic Ocean,234.25,413.2291666666667,123.96875,56.0,231.40833333333336,110.28125,1684.04373,60.64473801721342,475.59786045941996,363.86860403290564,248.03145196204773,166.67257871977958,150.0043226939616,545.8007175962535,1264.071682819753,1983.6451300157248,2315.900950899993,1270.391439768342,753.7009312455629,715.300195996776
204,Natashquan,50.1136835286054,-61.8111138135448,Canada,Northern America,North America,North Atlantic Ocean,121.41778,347.6710878333334,104.30132635,28.0,97.34790459333335,17.116463,858.793848,73.51586487553533,220.2984706616961,166.07965329936113,160.30308167099236,307.2942848820215,1837.0965000198628,1488.8958996186307,789.985935991221,543.6384645731147,521.7846771825447,641.6296288584535,582.9722470553563,346.73920143625764
205,Hvita (Olfusa),63.8778447161703,-21.2096454057483,Iceland,Northern Europe,Europe,North Atlantic Ocean,396.01215,398.52629083333335,119.55788725,61.0,243.10103740833333,243.10106,2917.21272,100.00000929311815,757.6610054888599,788.9865356425166,784.0014241167623,805.9627936313898,898.4951264195829,943.6735920036746,741.94017233369,754.9159907114968,704.7505224974677,745.7613739589605,745.7345525958932,739.5147683790124
206,Altamaha,31.318237679497,-81.29346430003,United States,Northern America,North America,North Atlantic Ocean,507.07233,370.9539625,111.28618875,15.0,55.643094375,55.643097,667.717164,100.00000471756655,1035.3314272911364,1351.3072821685064,1578.0189571797,1386.5984535194,707.464723434144,507.7384752441373,463.85172818561784,448.9620758738537,359.9007166181352,366.57165387034365,361.7549375508478,621.8758989335679
207,Hudson,40.7023259212264,-74.0304955868183,United States,Northern America,North America,North Atlantic Ocean,420.40814,408.81618583333335,122.64485575,14.0,57.23426601666667,57.234268,686.8112160000001,100.00000346529004,781.6971424906826,761.6653840134156,1221.0065565391637,1654.0607427320185,1015.2495688732332,603.6195648978355,406.37318685917006,343.59743337727986,373.94901463137217,545.8843804459696,755.4205364140108,867.6434998755477
208,Outardes (R aux,49.1375,-68.375,Canada,Northern America,North America,North Atlantic Ocean,276.81711,389.8255375,116.94766124999998,23.0,89.65987362499999,89.659882,1075.9185840000002,100.00000934085638,528.8882474475688,439.029362730496,373.777584636723,431.60952444915233,1402.661347639338,1252.6208745290398,723.3272618869198,656.043266870913,717.1826303638354,704.3805458779194,584.6259821159314,503.90039406883227
209,Taku,58.5041666666667,-133.920833333333,United States,Northern America,North America,North Pacific Ocean,65.21228,383.1206455833333,114.936193675,54.0,206.885148615,0.0,1278.4200997000005,51.49475881740945,104.45455196165443,94.6183856592391,103.77758096135967,208.9155055403455,1068.8942338071026,1696.1814301983234,1531.6718706835181,1209.450706662337,890.4037324803197,514.5476611412511,245.33094083276254,150.55416594418776
210,Bueno,-40.2447012828909,-73.7134022657694,Chile,South America,South America,South Pacific Ocean,364.00671,512.3991191666667,153.71973574999998,24.0,122.9757886,122.97578,1475.70936,99.99999300675354,674.7336811185667,562.6855976730097,520.3214989334904,568.5634501850144,964.1076913717479,1451.537229405058,1521.0994578437685,1382.6822794825034,1123.104771291721,953.277704924954,855.994534502507,796.855429111476
211,Mahi,22.2348312764948,72.8619798758438,India,Southern Asia,Asia,Indian Ocean,14.909091,382.5833350833333,114.775000525,100.0,382.5833350833333,0.0,1205.611386,26.260321944790515,27.155909776991017,24.19353294113992,49.72002344855268,21.041595170364868,14.057463305763896,347.75080690176026,1416.8560619492446,3136.2955653787803,3197.9768390515064,181.76605502419292,60.68271591420596,39.586115542776525
212,Itajai-Acu,-26.9054632563355,-48.6520796423334,Brazil,South America,South America,South Atlantic Ocean,537.21924,539.6927791666667,161.90783375,43.0,232.06789504166667,232.0679,2784.8148,100.00000213658736,1116.8024141173953,1327.494145673328,1134.7335172135652,842.175847679183,915.4630678137653,908.3255401472042,1038.1103898223375,1132.3949532746128,1299.7861449703569,1387.1420898895503,1083.7425004790573,976.4253428449347
213,Niari,-5.03333333333334,12.0208333333333,Angola,Middle Africa,Africa,South Atlantic Ocean,520.40002,379.1722233333333,113.75166699999998,5.0,18.958611166666667,18.958611,227.503332,99.999999120892,918.5910365527394,861.6976380048885,864.5036695016892,1103.8348859255755,1051.3015721057843,522.2842063194688,369.81217705266613,299.90751624571334,258.30869158700904,298.67041312784875,824.2493814546516,1096.851868800081
214,Angerman,63.0169782620915,17.7795628081958,Sweden,Northern Europe,Europe,Baltic Sea,360.37021,418.8102816666666,125.6430845,48.0,201.0289352,201.02895,2412.3474,100.00000736212424,630.8100157795274,632.3956258634254,566.5505182172915,632.6927756899153,1061.9111500856675,818.4137680330474,1080.1929619742823,894.0758972709533,818.460275673638,791.8160284877082,750.1009863776236,684.9079181484534
215,Thjorsa,63.7781514497212,-20.7917135919875,Iceland,Northern Europe,Europe,North Atlantic Ocean,273.31888,363.4556608333333,109.03669825,44.0,159.92049076666666,159.9205,1919.046,100.00000577370244,525.7064125690638,602.6070148158657,582.0936189645424,642.4114807703127,1050.75198979677,1255.6153030247783,1002.6972126260268,936.2618568514822,719.4112798341507,665.6357670556421,600.3898093919285,508.6652081728644
216,Lempa,13.258886556641,-88.8253409531162,El Salvador,Central America,North America,North Pacific Ocean,91.349998,362.2923225833334,108.687696775,26.0,94.19600387166668,0.0,623.7577913,55.1826126429783,184.22532179493825,173.95763739550713,171.0624776100226,178.4898869263635,329.43926452208837,1207.2044077120397,1098.9739745422298,1244.8697195906273,1927.840884014752,1539.8898487335885,399.2166351855941,229.4462160760758
217,Solo (Bengawan,-6.8775894875481,112.556935040805,Indonesia,Southeastern Asia,Asia,South China and Easter Archipelagic Seas,834.22223,364.6481468333334,109.39444405000002,100.0,364.6481468333334,364.64819,2044.792733,46.72981225777343,1624.055266097803,1953.7864500360918,1457.4689224686263,1039.761205165727,449.33099055111285,339.3250405137499,145.70688384550724,70.99443573207523,94.90985374747949,122.78959191043384,353.0900054433574,853.4915877366847
218,Noatak,66.9820335071132,-162.499145721264,United States,Northern America,North America,Arctic Ocean,0.0,351.6939929916667,105.5081978975,100.0,351.6939929916667,0.0,1416.5930201,33.565946730419085,0.0,0.0,0.0,5.807820646058439,122.25637069356927,2985.058135042308,1186.6193549938137,1091.0550632279892,753.5965850286636,191.14872785276853,14.381564451948666,0.3728866685610022
219,Mogami,38.9175577461641,139.817441231491,Japan,Eastern Asia,Asia,North Pacific Ocean,244.72815,370.2380008333334,111.07140025,28.0,103.66664023333335,103.66664,1243.99968,99.99999977491952,415.07916457427194,399.0501820893822,846.198309883112,1669.6693876875242,960.56791702484,542.5813527542618,727.6199530723004,547.5832796022958,468.56875807898774,408.131121825386,577.1721429116303,621.7347007016682
220,Arnaud (Payne),59.9815765184034,-69.799762824362,Canada,Northern America,North America,Arctic Ocean,82.380951,346.2015890833333,103.860476725,84.0,290.80933482999995,0.0,1596.468559,45.7478597312238,148.21145594706434,99.12871517760246,81.21330739807586,82.1446325455513,124.59045218484997,1880.6986692030732,1737.302996955039,1107.6037168778828,962.993137643424,721.178293016161,408.310822311036,229.31387494720025
221,Savannah,32.0373145861408,-80.8501127396129,United States,Northern America,North America,North Atlantic Ocean,390.77667,319.238535,95.7715605,39.0,124.50302865,124.50302,1494.0362400000004,99.99999305237787,825.0128582520841,890.0454989791119,953.6693048520174,868.9006650635461,632.6480067745331,548.0798194972947,521.0170807605158,543.0536433019826,482.7811717091027,529.4247351360144,503.5091914569577,652.1877340738704
222,Grande de Terra,8.97083333333333,-83.6208333333334,Costa Rica,Central America,North America,North Pacific Ocean,120.64286,332.5843235,99.77529705,39.0,129.707886165,20.867561,1059.50538193,68.069966885836,235.5187294204085,140.60689345978386,120.75750046542288,200.65865445501814,494.6319792043964,762.0141141485744,634.342742663232,795.4070453428537,1153.153350996652,1549.7837696154584,1048.387147987378,432.44761371021633
223,Delaware,39.3308780693769,-75.4189314799755,United States,Northern America,North America,North Atlantic Ocean,364.90039,337.7978041666666,101.33934124999998,22.0,74.31551691666665,74.315521,891.786252,100.00000549459052,698.1614093874224,773.0754870990878,1211.573780908837,1312.3540928667885,849.5872772891591,547.9562261113668,433.0617971817028,344.04264256720734,370.5693639124904,454.8621056522398,590.8686946117325,776.272424088032
224,Buzi,-19.8833333333333,34.7416666666667,Mozambique,Eastern Africa,Africa,Indian Ocean,201.5,333.2291666666667,99.96875,4.0,13.329166666666667,13.329166,141.32291,88.35442950922162,427.08225377420405,1882.4723518936983,2842.5001303966387,1021.4749811478255,418.7175048053316,269.8725301071534,247.52543028713856,254.2875641191827,287.0084650206569,248.59080316390938,235.36199550250225,182.9562408826109
225,Maas (Meuse),51.7112990448089,4.41257287849819,Netherlands,Western Europe,Europe,North Atlantic Ocean,605.68921,326.2218466666667,97.866554,11.0,35.884403133333336,35.884403,430.6128360000001,99.99999962843654,1193.5026730582229,1059.0735951833703,852.5147105615272,757.0476582094469,499.1201038530593,361.74863963507727,306.44439889539086,273.1596800981746,283.1452678399737,374.76481398211513,640.9530801096934,942.7391688630868
226,Potomac,38.0109503810149,-76.3845754894043,United States,Northern America,North America,North Atlantic Ocean,391.01633,325.7314983333333,97.7194495,10.0,32.57314983333333,32.573147,390.877764,99.99999130162928,747.7192971654433,890.2520499175303,1260.9324720807138,1103.327530960568,852.7153175489196,515.3995935270442,266.5218060869032,249.988066211249,297.3798612102363,314.41994381598386,398.6683001236259,600.4014087635146
227,Kiso,35.0352736051898,136.74025081655,Japan,Eastern Asia,Asia,North Pacific Ocean,119.94215,279.20971583333335,83.76291475000001,12.0,33.5051659,33.505161,402.0619319999999,99.99998537538951,195.78136766437262,220.70020847908393,379.6782287027292,578.3127760108847,622.596161894493,777.9540290964649,1145.3363887960943,652.8754919931176,638.0741285633468,409.08460051589276,299.58576781493423,236.88989707336788
228,Drini,41.8747625779358,19.3741294539036,Albania,Southern Europe,Europe,Mediterranean Region,420.0,318.4375,95.53125,11.0,35.028125,35.028126,384.7187599999999,91.52615695720698,839.1524615226228,871.1966407356213,812.2560860286765,950.7925700076773,885.2667666749963,563.6423613384653,268.835294256479,204.0140733992636,267.51001627698986,338.8879772485119,746.2373741253074,1036.9165876465888
229,Camaqua,-31.2733767842064,-51.7637689405093,Brazil,South America,South America,South Atlantic Ocean,200.27914,394.7053150000001,118.41159450000002,20.0,78.94106300000003,78.941063,947.292756,99.99999999999996,434.33353160795156,495.738446129756,443.3205053349107,620.2848703035856,591.6004764005218,907.6292729049909,1213.1412675462698,1066.8731928032337,1135.1574237664197,1019.0839473363083,687.655137637525,449.4553000581895
230,Weser,53.5350127694477,8.5619889163784,Germany,Western Europe,Europe,North Atlantic Ocean,462.43939,316.281185,94.8843555,27.0,85.39591995,85.395912,1024.7509439999997,99.9999906904217,844.3319079225854,995.1870527716441,772.7706909149488,817.5863563681013,568.7677889265979,451.04073881515063,408.97297905764503,366.58574448086284,344.40468077086047,388.42704963955435,509.18790459982546,684.3398876893507
231,Waikato,-37.3712329774637,174.707011731465,New Zealand,Australia/New Zealand,Oceania,South Pacific Ocean,265.11111,312.0312508333334,93.60937525,45.0,140.41406287500004,140.41408,1684.9689600000002,100.00001219607182,514.0947294496023,468.9675019858345,447.5813313840727,469.026559552829,561.6738538135244,657.0557993623532,805.7248958768668,770.4520307645737,725.9940869102884,686.0450173237818,614.8633986546727,528.9258942166018
232,Subarnarekha,21.5621610789456,87.3763203672298,India,Southern Asia,Asia,Indian Ocean,17.799999,310.2469722083334,93.0740916625,93.0,288.52968415375005,0.0,1388.3432069999997,40.09821990736625,31.427084132705964,23.57331366605293,13.708986166915478,40.191444665437224,59.797583897224584,574.0550521739756,1059.1029744407676,2263.672280079019,1742.1909592287411,703.1373872663421,231.82739199000954,84.38330812352771
233,Wouri,4.08685247821096,9.69613215468803,Cameroon,Middle Africa,Africa,North Atlantic Ocean,91.023079,308.4618589166667,92.538557675,44.0,135.72321792333335,0.0,937.562084,57.56581288162533,158.62518088862743,116.35397548170086,124.38842187122913,187.45135106172864,257.14781085947124,433.240319666149,751.7381816277461,1129.7805294968632,1472.0228219681483,1182.6035346284768,605.4808183733552,269.93759132831616
234,Dramselv,59.7340794550411,10.2223055117697,Norway,Northern Europe,Europe,North Atlantic Ocean,135.30322,307.4613458333333,92.23840375,13.0,39.96997495833333,39.969978,479.6397359999999,100.00000760987882,221.4764552927899,223.633596953728,222.634960597617,328.7414897702812,1023.4555348192346,1195.7439780697882,761.1353774617727,663.0942327581005,614.8528144514281,519.1795559880347,406.9692687234601,283.63470373405875
235,Daule,-2.65042185039719,-79.9170723288926,Ecuador,South America,South America,South Pacific Ocean,253.24374,291.62198300000006,87.48659490000001,20.0,58.324396600000014,58.324394,506.344221,72.34597219990782,524.9575291725736,1046.0065224702685,1370.6712046981934,1453.414988914231,876.0567151276248,443.5636011299396,306.20318908397616,196.47030905716002,165.96879831622817,165.52791266633255,240.50790071960972,343.331378077575
236,Kymi,40.3875125857662,16.8570274408851,Italy,Southern Europe,Europe,Mediterranean Region,297.21002,302.1483975,90.64451925,57.0,172.224586575,172.22459,2066.69508,100.00000198868236,646.8426601476544,639.4495891379636,580.2247920053813,645.5476633759707,790.9778202278416,777.5574688767941,710.2738228483868,661.0986923934095,612.7673877310409,592.9762575755067,643.9839642226148,636.8439616438711
237,Sittang,17.1863022717007,96.8940325899836,Myanmar,Southeastern Asia,Asia,Indian Ocean,,,,0.0,,0.0,0.0,,,,,,,,,,,,,
